frontend/data/Jump_timewindows.csv

PlaneIdx,SatId,Side,OldNeighborSatId,NewNeighborSatId,StartTime_UTCG,EndTime_UTCG,Duration_sec,Duration_min
1,Sat_1_1,Left,Sat_15_2,Sat_15_1,2025-12-15 00:28:50.971,2025-12-15 00:37:57.745,546.77,9.11
1,Sat_1_1,Left,Sat_15_1,Sat_15_2,2025-12-15 00:45:55.698,2025-12-15 01:11:19.497,1523.80,25.40
1,Sat_1_1,Left,Sat_15_2,Sat_15_1,2025-12-15 01:16:41.161,2025-12-15 01:25:46.771,545.61,9.09
1,Sat_1_1,Left,Sat_15_1,Sat_15_2,2025-12-15 01:33:45.295,2025-12-15 01:59:09.328,1524.03,25.40
1,Sat_1_1,Left,Sat_15_2,Sat_15_1,2025-12-15 02:04:30.911,2025-12-15 02:13:36.119,545.21,9.09
1,Sat_1_1,Left,Sat_15_1,Sat_15_2,2025-12-15 02:21:34.887,2025-12-15 02:46:59.193,1524.31,25.41
1,Sat_1_1,Left,Sat_15_2,Sat_15_1,2025-12-15 02:52:20.160,2025-12-15 03:01:25.748,545.59,9.09
1,Sat_1_1,Left,Sat_15_1,Sat_15_2,2025-12-15 03:09:24.468,2025-12-15 03:34:49.068,1524.60,25.41
1,Sat_1_1,Left,Sat_15_2,Sat_15_1,2025-12-15 03:40:08.835,2025-12-15 03:49:15.626,546.79,9.11
1,Sat_1_1,Left,Sat_15_1,Sat_15_2,2025-12-15 03:57:14.033,2025-12-15 04:22:38.926,1524.89,25.41
1,Sat_1_1,Left,Sat_15_2,Sat_15_1,2025-12-15 04:27:56.850,2025-12-15 04:37:05.725,548.87,9.15
1,Sat_1_1,Left,Sat_15_1,Sat_15_2,2025-12-15 04:45:03.577,2025-12-15 05:10:28.744,1525.17,25.42
1,Sat_1_1,Left,Sat_15_2,Sat_15_1,2025-12-15 05:15:44.103,2025-12-15 05:24:56.017,551.91,9.20
1,Sat_1_1,Left,Sat_15_1,Sat_15_2,2025-12-15 05:32:52.894,2025-12-15 05:58:18.495,1525.60,25.43
1,Sat_1_1,Left,Sat_15_2,Sat_15_1,2025-12-15 06:03:30.470,2025-12-15 06:12:46.482,556.01,9.27
1,Sat_1_1,Left,Sat_15_1,Sat_15_2,2025-12-15 06:20:42.158,2025-12-15 06:46:08.156,1526.00,25.43
1,Sat_1_1,Left,Sat_15_2,Sat_15_1,2025-12-15 06:51:15.801,2025-12-15 07:00:37.098,561.30,9.35
1,Sat_1_1,Left,Sat_15_1,Sat_15_2,2025-12-15 07:08:31.483,2025-12-15 07:33:57.699,1526.22,25.44
1,Sat_1_1,Left,Sat_15_2,Sat_15_1,2025-12-15 08:26:52.199,2025-12-15 08:36:18.719,566.52,9.44
1,Sat_1_1,Left,Sat_15_2,Sat_15_1,2025-12-15 09:14:44.295,2025-12-15 09:24:09.694,565.40,9.42
1,Sat_1_1,Left,Sat_15_2,Sat_15_1,2025-12-15 10:02:36.221,2025-12-15 10:12:00.760,564.54,9.41
1,Sat_1_1,Left,Sat_15_2,Sat_15_1,2025-12-15 10:50:27.951,2025-12-15 10:59:47.663,559.71,9.33
1,Sat_1_1,Left,Sat_15_2,Sat_15_1,2025-12-15 11:38:19.456,2025-12-15 11:47:34.794,555.34,9.26
1,Sat_1_1,Left,Sat_15_1,Sat_15_2,2025-12-15 11:55:28.360,2025-12-15 12:20:51.904,1523.54,25.39
1,Sat_1_1,Left,Sat_15_2,Sat_15_1,2025-12-15 12:26:10.705,2025-12-15 12:35:22.487,551.78,9.20
1,Sat_1_1,Left,Sat_15_1,Sat_15_2,2025-12-15 12:43:17.937,2025-12-15 13:08:41.460,1523.52,25.39
1,Sat_1_1,Left,Sat_15_2,Sat_15_1,2025-12-15 13:14:01.661,2025-12-15 13:23:10.669,549.01,9.15
1,Sat_1_1,Left,Sat_15_1,Sat_15_2,2025-12-15 13:31:07.527,2025-12-15 13:56:31.132,1523.61,25.39
1,Sat_1_1,Left,Sat_15_2,Sat_15_1,2025-12-15 14:01:52.284,2025-12-15 14:10:59.276,546.99,9.12
1,Sat_1_1,Left,Sat_15_1,Sat_15_2,2025-12-15 14:18:57.123,2025-12-15 14:44:20.894,1523.77,25.40
1,Sat_1_1,Left,Sat_15_2,Sat_15_1,2025-12-15 14:49:42.529,2025-12-15 14:58:48.255,545.73,9.10
1,Sat_1_1,Left,Sat_15_1,Sat_15_2,2025-12-15 15:06:46.720,2025-12-15 15:32:10.718,1524.00,25.40
1,Sat_1_1,Left,Sat_15_2,Sat_15_1,2025-12-15 15:37:32.343,2025-12-15 15:46:37.560,545.22,9.09
1,Sat_1_1,Left,Sat_15_1,Sat_15_2,2025-12-15 15:54:36.313,2025-12-15 16:20:00.581,1524.27,25.40
1,Sat_1_1,Left,Sat_15_2,Sat_15_1,2025-12-15 16:25:21.665,2025-12-15 16:34:27.153,545.49,9.09
1,Sat_1_1,Left,Sat_15_1,Sat_15_2,2025-12-15 16:42:25.896,2025-12-15 17:07:50.455,1524.56,25.41
1,Sat_1_1,Left,Sat_15_2,Sat_15_1,2025-12-15 17:13:10.423,2025-12-15 17:22:16.999,546.58,9.11
1,Sat_1_1,Left,Sat_15_1,Sat_15_2,2025-12-15 17:30:15.464,2025-12-15 17:55:40.317,1524.85,25.41
1,Sat_1_1,Left,Sat_15_2,Sat_15_1,2025-12-15 18:00:58.535,2025-12-15 18:10:07.069,548.53,9.14
1,Sat_1_1,Left,Sat_15_1,Sat_15_2,2025-12-15 18:18:05.011,2025-12-15 18:43:30.142,1525.13,25.42
1,Sat_1_1,Left,Sat_15_2,Sat_15_1,2025-12-15 18:48:45.899,2025-12-15 18:57:57.337,551.44,9.19
1,Sat_1_1,Left,Sat_15_1,Sat_15_2,2025-12-15 19:05:54.370,2025-12-15 19:31:19.904,1525.53,25.43
1,Sat_1_1,Left,Sat_15_2,Sat_15_1,2025-12-15 19:36:32.395,2025-12-15 19:45:47.779,555.38,9.26
1,Sat_1_1,Left,Sat_15_1,Sat_15_2,2025-12-15 19:53:43.625,2025-12-15 20:19:09.578,1525.95,25.43
1,Sat_1_1,Left,Sat_15_2,Sat_15_1,2025-12-15 20:24:17.878,2025-12-15 20:33:38.376,560.50,9.34
1,Sat_1_1,Left,Sat_15_1,Sat_15_2,2025-12-15 20:41:32.942,2025-12-15 21:06:59.139,1526.20,25.44
1,Sat_1_1,Left,Sat_15_2,Sat_15_1,2025-12-15 21:12:02.167,2025-12-15 21:21:29.109,566.94,9.45
1,Sat_1_1,Left,Sat_15_2,Sat_15_1,2025-12-15 21:59:53.270,2025-12-15 22:09:19.964,566.69,9.44
1,Sat_1_1,Left,Sat_15_2,Sat_15_1,2025-12-15 22:47:45.387,2025-12-15 22:57:10.924,565.54,9.43
1,Sat_1_1,Left,Sat_15_2,Sat_15_1,2025-12-15 23:35:37.338,2025-12-15 23:45:01.979,564.64,9.41
1,Sat_1_1,Left,Sat_15_1,Sat_15_2,2025-12-15 23:52:50.702,2025-12-16 00:00:00.000,429.30,7.15
1,Sat_1_2,Left,Sat_15_3,Sat_15_2,2025-12-15 00:21:19.492,2025-12-15 00:30:39.379,559.89,9.33
1,Sat_1_2,Left,Sat_15_2,Sat_15_3,2025-12-15 00:38:34.087,2025-12-15 01:04:00.267,1526.18,25.44
1,Sat_1_2,Left,Sat_15_3,Sat_15_2,2025-12-15 01:09:03.919,2025-12-15 01:18:30.099,566.18,9.44
1,Sat_1_2,Left,Sat_15_3,Sat_15_2,2025-12-15 01:56:54.109,2025-12-15 02:06:20.941,566.83,9.45
1,Sat_1_2,Left,Sat_15_3,Sat_15_2,2025-12-15 02:44:46.242,2025-12-15 02:54:11.891,565.65,9.43
1,Sat_1_2,Left,Sat_15_3,Sat_15_2,2025-12-15 03:32:38.212,2025-12-15 03:42:02.936,564.72,9.41
1,Sat_1_2,Left,Sat_15_3,Sat_15_2,2025-12-15 04:20:29.992,2025-12-15 04:29:50.904,560.91,9.35
1,Sat_1_2,Left,Sat_15_3,Sat_15_2,2025-12-15 05:08:21.555,2025-12-15 05:17:37.885,556.33,9.27
1,Sat_1_2,Left,Sat_15_2,Sat_15_3,2025-12-15 05:25:30.911,2025-12-15 05:50:54.477,1523.57,25.39
1,Sat_1_2,Left,Sat_15_3,Sat_15_2,2025-12-15 05:56:12.870,2025-12-15 06:05:25.448,552.58,9.21
1,Sat_1_2,Left,Sat_15_2,Sat_15_3,2025-12-15 06:13:20.484,2025-12-15 06:38:44.001,1523.52,25.39
1,Sat_1_2,Left,Sat_15_3,Sat_15_2,2025-12-15 06:44:03.901,2025-12-15 06:53:13.516,549.62,9.16
1,Sat_1_2,Left,Sat_15_2,Sat_15_3,2025-12-15 07:01:10.071,2025-12-15 07:26:33.648,1523.58,25.39
1,Sat_1_2,Left,Sat_15_3,Sat_15_2,2025-12-15 07:31:54.610,2025-12-15 07:41:02.024,547.41,9.12
1,Sat_1_2,Left,Sat_15_2,Sat_15_3,2025-12-15 07:48:59.666,2025-12-15 08:14:23.390,1523.72,25.40
1,Sat_1_2,Left,Sat_15_3,Sat_15_2,2025-12-15 08:19:44.952,2025-12-15 08:28:50.917,545.97,9.10
1,Sat_1_2,Left,Sat_15_2,Sat_15_3,2025-12-15 08:36:49.263,2025-12-15 09:02:13.201,1523.94,25.40
1,Sat_1_2,Left,Sat_15_3,Sat_15_2,2025-12-15 09:07:34.876,2025-12-15 09:16:40.147,545.27,9.09
1,Sat_1_2,Left,Sat_15_2,Sat_15_3,2025-12-15 09:24:38.858,2025-12-15 09:50:03.057,1524.20,25.40
1,Sat_1_2,Left,Sat_15_3,Sat_15_2,2025-12-15 09:55:24.324,2025-12-15 10:04:29.673,545.35,9.09
1,Sat_1_2,Left,Sat_15_2,Sat_15_3,2025-12-15 10:12:28.444,2025-12-15 10:37:52.931,1524.49,25.41
1,Sat_1_2,Left,Sat_15_3,Sat_15_2,2025-12-15 10:43:13.228,2025-12-15 10:52:19.460,546.23,9.10
1,Sat_1_2,Left,Sat_15_2,Sat_15_3,2025-12-15 11:00:18.016,2025-12-15 11:25:42.798,1524.78,25.41
1,Sat_1_2,Left,Sat_15_3,Sat_15_2,2025-12-15 11:31:01.506,2025-12-15 11:40:09.478,547.97,9.13
1,Sat_1_2,Left,Sat_15_2,Sat_15_3,2025-12-15 11:48:07.569,2025-12-15 12:13:32.634,1525.07,25.42
1,Sat_1_2,Left,Sat_15_3,Sat_15_2,2025-12-15 12:18:49.063,2025-12-15 12:27:59.699,550.64,9.18
1,Sat_1_2,Left,Sat_15_2,Sat_15_3,2025-12-15 12:35:57.007,2025-12-15 13:01:22.414,1525.41,25.42
1,Sat_1_2,Left,Sat_15_3,Sat_15_2,2025-12-15 13:06:35.784,2025-12-15 13:15:50.100,554.32,9.24
1,Sat_1_2,Left,Sat_15_2,Sat_15_3,2025-12-15 13:23:46.245,2025-12-15 13:49:12.112,1525.87,25.43
1,Sat_1_2,Left,Sat_15_3,Sat_15_2,2025-12-15 13:54:21.530,2025-12-15 14:03:40.661,559.13,9.32
1,Sat_1_2,Left,Sat_15_2,Sat_15_3,2025-12-15 14:11:35.548,2025-12-15 14:37:01.703,1526.15,25.44
1,Sat_1_2,Left,Sat_15_3,Sat_15_2,2025-12-15 14:42:06.130,2025-12-15 14:51:31.363,565.23,9.42
1,Sat_1_2,Left,Sat_15_3,Sat_15_2,2025-12-15 15:29:55.175,2025-12-15 15:39:22.189,567.01,9.45
1,Sat_1_2,Left,Sat_15_3,Sat_15_2,2025-12-15 16:17:47.329,2025-12-15 16:27:13.125,565.80,9.43
1,Sat_1_2,Left,Sat_15_3,Sat_15_2,2025-12-15 17:05:39.322,2025-12-15 17:15:04.158,564.84,9.41
1,Sat_1_2,Left,Sat_15_3,Sat_15_2,2025-12-15 17:53:31.130,2025-12-15 18:02:52.738,561.61,9.36
1,Sat_1_2,Left,Sat_15_3,Sat_15_2,2025-12-15 18:41:22.725,2025-12-15 18:50:39.632,556.91,9.28
1,Sat_1_2,Left,Sat_15_2,Sat_15_3,2025-12-15 18:58:32.341,2025-12-15 19:23:55.924,1523.58,25.39
1,Sat_1_2,Left,Sat_15_3,Sat_15_2,2025-12-15 19:29:14.075,2025-12-15 19:38:27.120,553.04,9.22
1,Sat_1_2,Left,Sat_15_2,Sat_15_3,2025-12-15 19:46:21.911,2025-12-15 20:11:45.429,1523.52,25.39
1,Sat_1_2,Left,Sat_15_3,Sat_15_2,2025-12-15 20:17:05.148,2025-12-15 20:26:15.123,549.98,9.17
1,Sat_1_2,Left,Sat_15_2,Sat_15_3,2025-12-15 20:34:11.497,2025-12-15 20:59:35.060,1523.56,25.39
1,Sat_1_2,Left,Sat_15_3,Sat_15_2,2025-12-15 21:04:55.903,2025-12-15 21:14:03.575,547.67,9.13
1,Sat_1_2,Left,Sat_15_2,Sat_15_3,2025-12-15 21:22:01.091,2025-12-15 21:47:24.790,1523.70,25.39
1,Sat_1_2,Left,Sat_15_3,Sat_15_2,2025-12-15 21:52:46.298,2025-12-15 22:01:52.418,546.12,9.10
1,Sat_1_2,Left,Sat_15_2,Sat_15_3,2025-12-15 22:09:50.688,2025-12-15 22:35:14.594,1523.91,25.40
1,Sat_1_2,Left,Sat_15_3,Sat_15_2,2025-12-15 22:40:36.283,2025-12-15 22:49:41.604,545.32,9.09
1,Sat_1_2,Left,Sat_15_2,Sat_15_3,2025-12-15 22:57:40.284,2025-12-15 23:23:04.445,1524.16,25.40
1,Sat_1_2,Left,Sat_15_3,Sat_15_2,2025-12-15 23:28:25.801,2025-12-15 23:37:31.092,545.29,9.09
1,Sat_1_2,Left,Sat_15_2,Sat_15_3,2025-12-15 23:45:29.871,2025-12-16 00:00:00.000,870.13,14.50
1,Sat_1_3,Left,Sat_15_4,Sat_15_3,2025-12-15 00:14:06.122,2025-12-15 00:23:16.390,550.27,9.17
1,Sat_1_3,Left,Sat_15_3,Sat_15_4,2025-12-15 00:31:12.615,2025-12-15 00:56:36.169,1523.55,25.39
1,Sat_1_3,Left,Sat_15_4,Sat_15_3,2025-12-15 01:01:56.913,2025-12-15 01:11:04.796,547.88,9.13
1,Sat_1_3,Left,Sat_15_3,Sat_15_4,2025-12-15 01:19:02.209,2025-12-15 01:44:25.890,1523.68,25.39
1,Sat_1_3,Left,Sat_15_4,Sat_15_3,2025-12-15 01:49:47.349,2025-12-15 01:58:53.600,546.25,9.10
1,Sat_1_3,Left,Sat_15_3,Sat_15_4,2025-12-15 02:06:51.806,2025-12-15 02:32:15.687,1523.88,25.40
1,Sat_1_3,Left,Sat_15_4,Sat_15_3,2025-12-15 02:37:37.381,2025-12-15 02:46:42.751,545.37,9.09
1,Sat_1_3,Left,Sat_15_3,Sat_15_4,2025-12-15 02:54:41.402,2025-12-15 03:20:05.534,1524.13,25.40
1,Sat_1_3,Left,Sat_15_4,Sat_15_3,2025-12-15 03:25:26.951,2025-12-15 03:34:32.208,545.26,9.09
1,Sat_1_3,Left,Sat_15_3,Sat_15_4,2025-12-15 03:42:30.991,2025-12-15 04:07:55.406,1524.41,25.41
1,Sat_1_3,Left,Sat_15_4,Sat_15_3,2025-12-15 04:13:15.995,2025-12-15 04:22:21.934,545.94,9.10
1,Sat_1_3,Left,Sat_15_3,Sat_15_4,2025-12-15 04:30:20.567,2025-12-15 04:55:45.277,1524.71,25.41
1,Sat_1_3,Left,Sat_15_4,Sat_15_3,2025-12-15 05:01:04.434,2025-12-15 05:10:11.898,547.46,9.12
1,Sat_1_3,Left,Sat_15_3,Sat_15_4,2025-12-15 05:18:10.125,2025-12-15 05:43:35.123,1525.00,25.42
1,Sat_1_3,Left,Sat_15_4,Sat_15_3,2025-12-15 05:48:52.177,2025-12-15 05:58:02.072,549.89,9.16
1,Sat_1_3,Left,Sat_15_3,Sat_15_4,2025-12-15 06:05:59.648,2025-12-15 06:31:24.919,1525.27,25.42
1,Sat_1_3,Left,Sat_15_4,Sat_15_3,2025-12-15 06:36:39.114,2025-12-15 06:45:52.431,553.32,9.22
1,Sat_1_3,Left,Sat_15_3,Sat_15_4,2025-12-15 06:53:48.870,2025-12-15 07:19:14.639,1525.77,25.43
1,Sat_1_3,Left,Sat_15_4,Sat_15_3,2025-12-15 07:24:25.113,2025-12-15 07:33:42.955,557.84,9.30
1,Sat_1_3,Left,Sat_15_3,Sat_15_4,2025-12-15 07:41:38.158,2025-12-15 08:07:04.259,1526.10,25.44
1,Sat_1_3,Left,Sat_15_4,Sat_15_3,2025-12-15 08:12:10.011,2025-12-15 08:21:33.624,563.61,9.39
1,Sat_1_3,Left,Sat_15_4,Sat_15_3,2025-12-15 08:59:57.071,2025-12-15 09:09:24.421,567.35,9.46
1,Sat_1_3,Left,Sat_15_4,Sat_15_3,2025-12-15 09:47:49.261,2025-12-15 09:57:15.331,566.07,9.43
1,Sat_1_3,Left,Sat_15_4,Sat_15_3,2025-12-15 10:35:41.296,2025-12-15 10:45:06.342,565.05,9.42
1,Sat_1_3,Left,Sat_15_4,Sat_15_3,2025-12-15 11:23:33.152,2025-12-15 11:32:56.043,562.89,9.38
1,Sat_1_3,Left,Sat_15_4,Sat_15_3,2025-12-15 12:11:24.801,2025-12-15 12:20:42.778,557.98,9.30
1,Sat_1_3,Left,Sat_15_3,Sat_15_4,2025-12-15 12:28:34.893,2025-12-15 12:53:58.512,1523.62,25.39
1,Sat_1_3,Left,Sat_15_4,Sat_15_3,2025-12-15 12:59:16.214,2025-12-15 13:08:30.128,553.91,9.23
1,Sat_1_3,Left,Sat_15_3,Sat_15_4,2025-12-15 13:16:24.459,2025-12-15 13:41:47.982,1523.52,25.39
1,Sat_1_3,Left,Sat_15_4,Sat_15_3,2025-12-15 13:47:07.358,2025-12-15 13:56:18.012,550.65,9.18
1,Sat_1_3,Left,Sat_15_3,Sat_15_4,2025-12-15 14:04:14.042,2025-12-15 14:29:37.585,1523.54,25.39
1,Sat_1_3,Left,Sat_15_4,Sat_15_3,2025-12-15 14:34:58.195,2025-12-15 14:44:06.360,548.17,9.14
1,Sat_1_3,Left,Sat_15_3,Sat_15_4,2025-12-15 14:52:03.634,2025-12-15 15:17:27.293,1523.66,25.39
1,Sat_1_3,Left,Sat_15_4,Sat_15_3,2025-12-15 15:22:48.682,2025-12-15 15:31:55.112,546.43,9.11
1,Sat_1_3,Left,Sat_15_3,Sat_15_4,2025-12-15 15:39:53.231,2025-12-15 16:05:17.081,1523.85,25.40
1,Sat_1_3,Left,Sat_15_4,Sat_15_3,2025-12-15 16:10:38.772,2025-12-15 16:19:44.218,545.45,9.09
1,Sat_1_3,Left,Sat_15_3,Sat_15_4,2025-12-15 16:27:42.828,2025-12-15 16:53:06.923,1524.10,25.40
1,Sat_1_3,Left,Sat_15_4,Sat_15_3,2025-12-15 16:58:28.410,2025-12-15 17:07:33.636,545.23,9.09
1,Sat_1_3,Left,Sat_15_3,Sat_15_4,2025-12-15 17:15:32.418,2025-12-15 17:40:56.793,1524.38,25.41
1,Sat_1_3,Left,Sat_15_4,Sat_15_3,2025-12-15 17:46:17.530,2025-12-15 17:55:23.327,545.80,9.10
1,Sat_1_3,Left,Sat_15_3,Sat_15_4,2025-12-15 18:03:21.996,2025-12-15 18:28:46.666,1524.67,25.41
1,Sat_1_3,Left,Sat_15_4,Sat_15_3,2025-12-15 18:34:06.057,2025-12-15 18:43:13.260,547.20,9.12
1,Sat_1_3,Left,Sat_15_3,Sat_15_4,2025-12-15 18:51:11.557,2025-12-15 19:16:36.517,1524.96,25.42
1,Sat_1_3,Left,Sat_15_4,Sat_15_3,2025-12-15 19:21:53.901,2025-12-15 19:31:03.407,549.51,9.16
1,Sat_1_3,Left,Sat_15_3,Sat_15_4,2025-12-15 19:39:01.094,2025-12-15 20:04:26.321,1525.23,25.42
1,Sat_1_3,Left,Sat_15_4,Sat_15_3,2025-12-15 20:09:40.956,2025-12-15 20:18:53.742,552.79,9.21
1,Sat_1_3,Left,Sat_15_3,Sat_15_4,2025-12-15 20:26:50.342,2025-12-15 20:52:16.053,1525.71,25.43
1,Sat_1_3,Left,Sat_15_4,Sat_15_3,2025-12-15 20:57:27.092,2025-12-15 21:06:44.244,557.15,9.29
1,Sat_1_3,Left,Sat_15_3,Sat_15_4,2025-12-15 21:14:39.622,2025-12-15 21:40:05.688,1526.07,25.43
1,Sat_1_3,Left,Sat_15_4,Sat_15_3,2025-12-15 21:45:12.152,2025-12-15 21:54:34.894,562.74,9.38
1,Sat_1_3,Left,Sat_15_3,Sat_15_4,2025-12-15 22:02:28.960,2025-12-15 22:27:55.200,1526.24,25.44
1,Sat_1_3,Left,Sat_15_4,Sat_15_3,2025-12-15 23:20:50.339,2025-12-15 23:30:16.570,566.23,9.44
1,Sat_1_3,Left,Sat_15_3,Sat_15_4,2025-12-15 23:38:07.791,2025-12-16 00:00:00.000,1312.21,21.87
1,Sat_1_4,Left,Sat_15_5,Sat_15_4,2025-12-15 00:06:42.389,2025-12-15 00:15:54.772,552.38,9.21
1,Sat_1_4,Left,Sat_15_4,Sat_15_5,2025-12-15 00:23:51.498,2025-12-15 00:49:17.161,1525.66,25.43
1,Sat_1_4,Left,Sat_15_5,Sat_15_4,2025-12-15 00:54:28.631,2025-12-15 01:03:45.257,556.63,9.28
1,Sat_1_4,Left,Sat_15_4,Sat_15_5,2025-12-15 01:11:40.771,2025-12-15 01:37:06.807,1526.04,25.43
1,Sat_1_4,Left,Sat_15_5,Sat_15_4,2025-12-15 01:42:13.815,2025-12-15 01:51:35.892,562.08,9.37
1,Sat_1_4,Left,Sat_15_4,Sat_15_5,2025-12-15 01:59:30.104,2025-12-15 02:24:56.333,1526.23,25.44
1,Sat_1_4,Left,Sat_15_5,Sat_15_4,2025-12-15 03:17:51.184,2025-12-15 03:27:17.544,566.36,9.44
1,Sat_1_4,Left,Sat_15_5,Sat_15_4,2025-12-15 04:05:43.258,2025-12-15 04:15:08.531,565.27,9.42
1,Sat_1_4,Left,Sat_15_5,Sat_15_4,2025-12-15 04:53:35.160,2025-12-15 05:02:59.391,564.23,9.40
1,Sat_1_4,Left,Sat_15_5,Sat_15_4,2025-12-15 05:41:26.863,2025-12-15 05:50:45.960,559.10,9.32
1,Sat_1_4,Left,Sat_15_5,Sat_15_4,2025-12-15 06:29:18.337,2025-12-15 06:38:33.169,554.83,9.25
1,Sat_1_4,Left,Sat_15_4,Sat_15_5,2025-12-15 06:46:27.008,2025-12-15 07:11:50.543,1523.53,25.39
1,Sat_1_4,Left,Sat_15_5,Sat_15_4,2025-12-15 07:17:09.550,2025-12-15 07:26:20.929,551.38,9.19
1,Sat_1_4,Left,Sat_15_4,Sat_15_5,2025-12-15 07:34:16.587,2025-12-15 07:59:40.116,1523.53,25.39
1,Sat_1_4,Left,Sat_15_5,Sat_15_4,2025-12-15 08:05:00.465,2025-12-15 08:14:09.169,548.70,9.15
1,Sat_1_4,Left,Sat_15_4,Sat_15_5,2025-12-15 08:22:06.178,2025-12-15 08:47:29.801,1523.62,25.39
1,Sat_1_4,Left,Sat_15_5,Sat_15_4,2025-12-15 08:52:51.042,2025-12-15 09:01:57.827,546.78,9.11
1,Sat_1_4,Left,Sat_15_4,Sat_15_5,2025-12-15 09:09:55.774,2025-12-15 09:35:19.572,1523.80,25.40
1,Sat_1_4,Left,Sat_15_5,Sat_15_4,2025-12-15 09:40:41.235,2025-12-15 09:49:46.851,545.62,9.09
1,Sat_1_4,Left,Sat_15_4,Sat_15_5,2025-12-15 09:57:45.372,2025-12-15 10:23:09.403,1524.03,25.40
1,Sat_1_4,Left,Sat_15_5,Sat_15_4,2025-12-15 10:28:30.988,2025-12-15 10:37:36.196,545.21,9.09
1,Sat_1_4,Left,Sat_15_4,Sat_15_5,2025-12-15 10:45:34.964,2025-12-15 11:10:59.268,1524.30,25.41
1,Sat_1_4,Left,Sat_15_5,Sat_15_4,2025-12-15 11:16:20.241,2025-12-15 11:25:25.824,545.58,9.09
1,Sat_1_4,Left,Sat_15_4,Sat_15_5,2025-12-15 11:33:24.545,2025-12-15 11:58:49.143,1524.60,25.41
1,Sat_1_4,Left,Sat_15_5,Sat_15_4,2025-12-15 12:04:08.921,2025-12-15 12:13:15.700,546.78,9.11
1,Sat_1_4,Left,Sat_15_4,Sat_15_5,2025-12-15 12:21:14.110,2025-12-15 12:46:39.001,1524.89,25.41
1,Sat_1_4,Left,Sat_15_5,Sat_15_4,2025-12-15 12:51:56.941,2025-12-15 13:01:05.797,548.86,9.15
1,Sat_1_4,Left,Sat_15_4,Sat_15_5,2025-12-15 13:09:03.654,2025-12-15 13:34:28.819,1525.16,25.42
1,Sat_1_4,Left,Sat_15_5,Sat_15_4,2025-12-15 13:39:44.200,2025-12-15 13:48:56.088,551.89,9.20
1,Sat_1_4,Left,Sat_15_4,Sat_15_5,2025-12-15 13:56:52.973,2025-12-15 14:22:18.571,1525.60,25.43
1,Sat_1_4,Left,Sat_15_5,Sat_15_4,2025-12-15 14:27:30.574,2025-12-15 14:36:46.552,555.98,9.27
1,Sat_1_4,Left,Sat_15_4,Sat_15_5,2025-12-15 14:44:42.237,2025-12-15 15:10:08.232,1526.00,25.43
1,Sat_1_4,Left,Sat_15_5,Sat_15_4,2025-12-15 15:15:15.913,2025-12-15 15:24:37.167,561.25,9.35
1,Sat_1_4,Left,Sat_15_4,Sat_15_5,2025-12-15 15:32:31.562,2025-12-15 15:57:57.776,1526.21,25.44
1,Sat_1_4,Left,Sat_15_5,Sat_15_4,2025-12-15 16:03:00.033,2025-12-15 16:12:27.917,567.88,9.46
1,Sat_1_4,Left,Sat_15_5,Sat_15_4,2025-12-15 16:50:52.257,2025-12-15 17:00:18.786,566.53,9.44
1,Sat_1_4,Left,Sat_15_5,Sat_15_4,2025-12-15 17:38:44.354,2025-12-15 17:48:09.760,565.41,9.42
1,Sat_1_4,Left,Sat_15_5,Sat_15_4,2025-12-15 18:26:36.281,2025-12-15 18:36:00.825,564.54,9.41
1,Sat_1_4,Left,Sat_15_5,Sat_15_4,2025-12-15 19:14:28.013,2025-12-15 19:23:47.760,559.75,9.33
1,Sat_1_4,Left,Sat_15_5,Sat_15_4,2025-12-15 20:02:19.520,2025-12-15 20:11:34.887,555.37,9.26
1,Sat_1_4,Left,Sat_15_4,Sat_15_5,2025-12-15 20:19:28.437,2025-12-15 20:44:51.981,1523.54,25.39
1,Sat_1_4,Left,Sat_15_5,Sat_15_4,2025-12-15 20:50:10.770,2025-12-15 20:59:22.576,551.81,9.20
1,Sat_1_4,Left,Sat_15_4,Sat_15_5,2025-12-15 21:07:18.014,2025-12-15 21:32:41.537,1523.52,25.39
1,Sat_1_4,Left,Sat_15_5,Sat_15_4,2025-12-15 21:38:01.729,2025-12-15 21:47:10.754,549.03,9.15
1,Sat_1_4,Left,Sat_15_4,Sat_15_5,2025-12-15 21:55:07.603,2025-12-15 22:20:31.208,1523.60,25.39
1,Sat_1_4,Left,Sat_15_5,Sat_15_4,2025-12-15 22:25:52.355,2025-12-15 22:34:59.358,547.00,9.12
1,Sat_1_4,Left,Sat_15_4,Sat_15_5,2025-12-15 22:42:57.200,2025-12-15 23:08:20.969,1523.77,25.40
1,Sat_1_4,Left,Sat_15_5,Sat_15_4,2025-12-15 23:13:42.603,2025-12-15 23:22:48.335,545.73,9.10
1,Sat_1_4,Left,Sat_15_4,Sat_15_5,2025-12-15 23:30:46.797,2025-12-15 23:56:10.793,1524.00,25.40
1,Sat_1_5,Left,Sat_15_5,Sat_15_6,2025-12-15 00:16:29.558,2025-12-15 00:41:53.112,1523.55,25.39
1,Sat_1_5,Left,Sat_15_6,Sat_15_5,2025-12-15 00:47:11.724,2025-12-15 00:56:23.874,552.15,9.20
1,Sat_1_5,Left,Sat_15_5,Sat_15_6,2025-12-15 01:04:19.134,2025-12-15 01:29:42.653,1523.52,25.39
1,Sat_1_5,Left,Sat_15_6,Sat_15_5,2025-12-15 01:35:02.716,2025-12-15 01:44:12.003,549.29,9.15
1,Sat_1_5,Left,Sat_15_5,Sat_15_6,2025-12-15 01:52:08.722,2025-12-15 02:17:32.313,1523.59,25.39
1,Sat_1_5,Left,Sat_15_6,Sat_15_5,2025-12-15 02:22:53.380,2025-12-15 02:32:00.564,547.18,9.12
1,Sat_1_5,Left,Sat_15_5,Sat_15_6,2025-12-15 02:39:58.317,2025-12-15 03:05:22.066,1523.75,25.40
1,Sat_1_5,Left,Sat_15_6,Sat_15_5,2025-12-15 03:10:43.671,2025-12-15 03:19:49.503,545.83,9.10
1,Sat_1_5,Left,Sat_15_5,Sat_15_6,2025-12-15 03:27:47.915,2025-12-15 03:53:11.885,1523.97,25.40
1,Sat_1_5,Left,Sat_15_6,Sat_15_5,2025-12-15 03:58:33.537,2025-12-15 04:07:38.773,545.24,9.09
1,Sat_1_5,Left,Sat_15_5,Sat_15_6,2025-12-15 04:15:37.509,2025-12-15 04:41:01.744,1524.24,25.40
1,Sat_1_5,Left,Sat_15_6,Sat_15_5,2025-12-15 04:46:22.918,2025-12-15 04:55:28.335,545.42,9.09
1,Sat_1_5,Left,Sat_15_5,Sat_15_6,2025-12-15 05:03:27.093,2025-12-15 05:28:51.618,1524.53,25.41
1,Sat_1_5,Left,Sat_15_6,Sat_15_5,2025-12-15 05:34:11.746,2025-12-15 05:43:18.154,546.41,9.11
1,Sat_1_5,Left,Sat_15_5,Sat_15_6,2025-12-15 05:51:16.663,2025-12-15 06:16:41.483,1524.82,25.41
1,Sat_1_5,Left,Sat_15_6,Sat_15_5,2025-12-15 06:21:59.936,2025-12-15 06:31:08.199,548.26,9.14
1,Sat_1_5,Left,Sat_15_5,Sat_15_6,2025-12-15 06:39:06.213,2025-12-15 07:04:31.313,1525.10,25.42
1,Sat_1_5,Left,Sat_15_6,Sat_15_5,2025-12-15 07:09:47.391,2025-12-15 07:18:58.445,551.05,9.18
1,Sat_1_5,Left,Sat_15_5,Sat_15_6,2025-12-15 07:26:55.608,2025-12-15 07:52:21.084,1525.48,25.42
1,Sat_1_5,Left,Sat_15_6,Sat_15_5,2025-12-15 07:57:33.995,2025-12-15 08:06:48.868,554.87,9.25
1,Sat_1_5,Left,Sat_15_5,Sat_15_6,2025-12-15 08:14:44.855,2025-12-15 08:40:10.770,1525.91,25.43
1,Sat_1_5,Left,Sat_15_6,Sat_15_5,2025-12-15 08:45:19.602,2025-12-15 08:54:39.448,559.85,9.33
1,Sat_1_5,Left,Sat_15_5,Sat_15_6,2025-12-15 09:02:34.166,2025-12-15 09:28:00.345,1526.18,25.44
1,Sat_1_5,Left,Sat_15_6,Sat_15_5,2025-12-15 09:33:04.039,2025-12-15 09:42:30.167,566.13,9.44
1,Sat_1_5,Left,Sat_15_6,Sat_15_5,2025-12-15 10:20:54.166,2025-12-15 10:30:21.008,566.84,9.45
1,Sat_1_5,Left,Sat_15_6,Sat_15_5,2025-12-15 11:08:46.301,2025-12-15 11:18:11.958,565.66,9.43
1,Sat_1_5,Left,Sat_15_6,Sat_15_5,2025-12-15 11:56:38.272,2025-12-15 12:06:03.002,564.73,9.41
1,Sat_1_5,Left,Sat_15_6,Sat_15_5,2025-12-15 12:44:30.053,2025-12-15 12:53:51.003,560.95,9.35
1,Sat_1_5,Left,Sat_15_6,Sat_15_5,2025-12-15 13:32:21.618,2025-12-15 13:41:37.979,556.36,9.27
1,Sat_1_5,Left,Sat_15_5,Sat_15_6,2025-12-15 13:49:30.988,2025-12-15 14:14:54.555,1523.57,25.39
1,Sat_1_5,Left,Sat_15_6,Sat_15_5,2025-12-15 14:20:12.935,2025-12-15 14:29:25.538,552.60,9.21
1,Sat_1_5,Left,Sat_15_5,Sat_15_6,2025-12-15 14:37:20.561,2025-12-15 15:02:44.078,1523.52,25.39
1,Sat_1_5,Left,Sat_15_6,Sat_15_5,2025-12-15 15:08:03.968,2025-12-15 15:17:13.603,549.63,9.16
1,Sat_1_5,Left,Sat_15_5,Sat_15_6,2025-12-15 15:25:10.148,2025-12-15 15:50:33.724,1523.58,25.39
1,Sat_1_5,Left,Sat_15_6,Sat_15_5,2025-12-15 15:55:54.680,2025-12-15 16:05:02.108,547.43,9.12
1,Sat_1_5,Left,Sat_15_5,Sat_15_6,2025-12-15 16:12:59.743,2025-12-15 16:38:23.465,1523.72,25.40
1,Sat_1_5,Left,Sat_15_6,Sat_15_5,2025-12-15 16:43:45.025,2025-12-15 16:52:50.998,545.97,9.10
1,Sat_1_5,Left,Sat_15_5,Sat_15_6,2025-12-15 17:00:49.340,2025-12-15 17:26:13.276,1523.94,25.40
1,Sat_1_5,Left,Sat_15_6,Sat_15_5,2025-12-15 17:31:34.952,2025-12-15 17:40:40.225,545.27,9.09
1,Sat_1_5,Left,Sat_15_5,Sat_15_6,2025-12-15 17:48:38.935,2025-12-15 18:14:03.132,1524.20,25.40
1,Sat_1_5,Left,Sat_15_6,Sat_15_5,2025-12-15 18:19:24.404,2025-12-15 18:28:29.749,545.34,9.09
1,Sat_1_5,Left,Sat_15_5,Sat_15_6,2025-12-15 18:36:28.521,2025-12-15 19:01:53.006,1524.48,25.41
1,Sat_1_5,Left,Sat_15_6,Sat_15_5,2025-12-15 19:07:13.312,2025-12-15 19:16:19.535,546.22,9.10
1,Sat_1_5,Left,Sat_15_5,Sat_15_6,2025-12-15 19:24:18.093,2025-12-15 19:49:42.873,1524.78,25.41
1,Sat_1_5,Left,Sat_15_6,Sat_15_5,2025-12-15 19:55:01.595,2025-12-15 20:04:09.551,547.96,9.13
1,Sat_1_5,Left,Sat_15_5,Sat_15_6,2025-12-15 20:12:07.646,2025-12-15 20:37:32.710,1525.06,25.42
1,Sat_1_5,Left,Sat_15_6,Sat_15_5,2025-12-15 20:42:49.157,2025-12-15 20:51:59.770,550.61,9.18
1,Sat_1_5,Left,Sat_15_5,Sat_15_6,2025-12-15 20:59:57.086,2025-12-15 21:25:22.490,1525.40,25.42
1,Sat_1_5,Left,Sat_15_6,Sat_15_5,2025-12-15 21:30:35.885,2025-12-15 21:39:50.171,554.29,9.24
1,Sat_1_5,Left,Sat_15_5,Sat_15_6,2025-12-15 21:47:46.325,2025-12-15 22:13:12.189,1525.86,25.43
1,Sat_1_5,Left,Sat_15_6,Sat_15_5,2025-12-15 22:18:21.639,2025-12-15 22:27:40.730,559.09,9.32
1,Sat_1_5,Left,Sat_15_5,Sat_15_6,2025-12-15 22:35:35.627,2025-12-15 23:01:01.780,1526.15,25.44
1,Sat_1_5,Left,Sat_15_6,Sat_15_5,2025-12-15 23:06:06.248,2025-12-15 23:15:31.431,565.18,9.42
1,Sat_1_5,Left,Sat_15_6,Sat_15_5,2025-12-15 23:53:55.232,2025-12-16 00:00:00.000,364.77,6.08
1,Sat_1_6,Left,Sat_15_6,Sat_15_7,2025-12-15 00:09:08.770,2025-12-15 00:34:33.804,1525.03,25.42
1,Sat_1_6,Left,Sat_15_7,Sat_15_6,2025-12-15 00:39:50.532,2025-12-15 00:49:00.812,550.28,9.17
1,Sat_1_6,Left,Sat_15_6,Sat_15_7,2025-12-15 00:56:58.247,2025-12-15 01:22:23.592,1525.34,25.42
1,Sat_1_6,Left,Sat_15_7,Sat_15_6,2025-12-15 01:27:37.356,2025-12-15 01:36:51.194,553.84,9.23
1,Sat_1_6,Left,Sat_15_6,Sat_15_7,2025-12-15 01:44:47.478,2025-12-15 02:10:13.300,1525.82,25.43
1,Sat_1_6,Left,Sat_15_7,Sat_15_6,2025-12-15 02:15:23.222,2025-12-15 02:24:41.738,558.52,9.31
1,Sat_1_6,Left,Sat_15_6,Sat_15_7,2025-12-15 02:32:36.774,2025-12-15 02:58:02.905,1526.13,25.44
1,Sat_1_6,Left,Sat_15_7,Sat_15_6,2025-12-15 03:03:07.963,2025-12-15 03:12:32.424,564.46,9.41
1,Sat_1_6,Left,Sat_15_7,Sat_15_6,2025-12-15 03:50:56.067,2025-12-15 04:00:23.237,567.17,9.45
1,Sat_1_6,Left,Sat_15_7,Sat_15_6,2025-12-15 04:38:48.238,2025-12-15 04:48:14.161,565.92,9.43
1,Sat_1_6,Left,Sat_15_7,Sat_15_6,2025-12-15 05:26:40.251,2025-12-15 05:36:05.183,564.93,9.42
1,Sat_1_6,Left,Sat_15_7,Sat_15_6,2025-12-15 06:14:32.081,2025-12-15 06:23:54.286,562.20,9.37
1,Sat_1_6,Left,Sat_15_7,Sat_15_6,2025-12-15 07:02:23.702,2025-12-15 07:11:41.105,557.40,9.29
1,Sat_1_6,Left,Sat_15_6,Sat_15_7,2025-12-15 07:19:33.540,2025-12-15 07:44:57.138,1523.60,25.39
1,Sat_1_6,Left,Sat_15_7,Sat_15_6,2025-12-15 07:50:15.082,2025-12-15 07:59:28.530,553.45,9.22
1,Sat_1_6,Left,Sat_15_6,Sat_15_7,2025-12-15 08:07:23.108,2025-12-15 08:32:46.627,1523.52,25.39
1,Sat_1_6,Left,Sat_15_7,Sat_15_6,2025-12-15 08:38:06.188,2025-12-15 08:47:16.477,550.29,9.17
1,Sat_1_6,Left,Sat_15_6,Sat_15_7,2025-12-15 08:55:12.692,2025-12-15 09:20:36.245,1523.55,25.39
1,Sat_1_6,Left,Sat_15_7,Sat_15_6,2025-12-15 09:25:56.982,2025-12-15 09:35:04.880,547.90,9.13
1,Sat_1_6,Left,Sat_15_6,Sat_15_7,2025-12-15 09:43:02.286,2025-12-15 10:08:25.966,1523.68,25.39
1,Sat_1_6,Left,Sat_15_7,Sat_15_6,2025-12-15 10:13:47.421,2025-12-15 10:22:53.681,546.26,9.10
1,Sat_1_6,Left,Sat_15_6,Sat_15_7,2025-12-15 10:30:51.883,2025-12-15 10:56:15.762,1523.88,25.40
1,Sat_1_6,Left,Sat_15_7,Sat_15_6,2025-12-15 11:01:37.456,2025-12-15 11:10:42.830,545.37,9.09
1,Sat_1_6,Left,Sat_15_6,Sat_15_7,2025-12-15 11:18:41.479,2025-12-15 11:44:05.609,1524.13,25.40
1,Sat_1_6,Left,Sat_15_7,Sat_15_6,2025-12-15 11:49:27.030,2025-12-15 11:58:32.285,545.25,9.09
1,Sat_1_6,Left,Sat_15_6,Sat_15_7,2025-12-15 12:06:31.068,2025-12-15 12:31:55.481,1524.41,25.41
1,Sat_1_6,Left,Sat_15_7,Sat_15_6,2025-12-15 12:37:16.078,2025-12-15 12:46:22.009,545.93,9.10
1,Sat_1_6,Left,Sat_15_6,Sat_15_7,2025-12-15 12:54:20.644,2025-12-15 13:19:45.352,1524.71,25.41
1,Sat_1_6,Left,Sat_15_7,Sat_15_6,2025-12-15 13:25:04.522,2025-12-15 13:34:11.971,547.45,9.12
1,Sat_1_6,Left,Sat_15_6,Sat_15_7,2025-12-15 13:42:10.202,2025-12-15 14:07:35.199,1525.00,25.42
1,Sat_1_6,Left,Sat_15_7,Sat_15_6,2025-12-15 14:12:52.270,2025-12-15 14:22:02.144,549.87,9.16
1,Sat_1_6,Left,Sat_15_6,Sat_15_7,2025-12-15 14:29:59.728,2025-12-15 14:55:24.995,1525.27,25.42
1,Sat_1_6,Left,Sat_15_7,Sat_15_6,2025-12-15 15:00:39.214,2025-12-15 15:09:52.502,553.29,9.22
1,Sat_1_6,Left,Sat_15_6,Sat_15_7,2025-12-15 15:17:48.949,2025-12-15 15:43:14.716,1525.77,25.43
1,Sat_1_6,Left,Sat_15_7,Sat_15_6,2025-12-15 15:48:25.220,2025-12-15 15:57:43.024,557.80,9.30
1,Sat_1_6,Left,Sat_15_6,Sat_15_7,2025-12-15 16:05:38.237,2025-12-15 16:31:04.336,1526.10,25.43
1,Sat_1_6,Left,Sat_15_7,Sat_15_6,2025-12-15 16:36:10.127,2025-12-15 16:45:33.692,563.57,9.39
1,Sat_1_6,Left,Sat_15_7,Sat_15_6,2025-12-15 17:23:57.129,2025-12-15 17:33:24.489,567.36,9.46
1,Sat_1_6,Left,Sat_15_7,Sat_15_6,2025-12-15 18:11:49.319,2025-12-15 18:21:15.398,566.08,9.43
1,Sat_1_6,Left,Sat_15_7,Sat_15_6,2025-12-15 18:59:41.355,2025-12-15 19:09:06.408,565.05,9.42
1,Sat_1_6,Left,Sat_15_7,Sat_15_6,2025-12-15 19:47:33.212,2025-12-15 19:56:56.144,562.93,9.38
1,Sat_1_6,Left,Sat_15_7,Sat_15_6,2025-12-15 20:35:24.863,2025-12-15 20:44:42.873,558.01,9.30
1,Sat_1_6,Left,Sat_15_6,Sat_15_7,2025-12-15 20:52:34.970,2025-12-15 21:17:58.590,1523.62,25.39
1,Sat_1_6,Left,Sat_15_7,Sat_15_6,2025-12-15 21:23:16.279,2025-12-15 21:32:30.220,553.94,9.23
1,Sat_1_6,Left,Sat_15_6,Sat_15_7,2025-12-15 21:40:24.536,2025-12-15 22:05:48.059,1523.52,25.39
1,Sat_1_6,Left,Sat_15_7,Sat_15_6,2025-12-15 22:11:07.424,2025-12-15 22:20:18.100,550.68,9.18
1,Sat_1_6,Left,Sat_15_6,Sat_15_7,2025-12-15 22:28:14.119,2025-12-15 22:53:37.661,1523.54,25.39
1,Sat_1_6,Left,Sat_15_7,Sat_15_6,2025-12-15 22:58:58.263,2025-12-15 23:08:06.444,548.18,9.14
1,Sat_1_6,Left,Sat_15_6,Sat_15_7,2025-12-15 23:16:03.711,2025-12-15 23:41:27.369,1523.66,25.39
1,Sat_1_6,Left,Sat_15_7,Sat_15_6,2025-12-15 23:46:48.754,2025-12-15 23:55:55.194,546.44,9.11
1,Sat_1_7,Left,Sat_15_8,Sat_15_7,2025-12-15 00:32:25.771,2025-12-15 00:41:44.268,558.50,9.31
1,Sat_1_7,Left,Sat_15_7,Sat_15_8,2025-12-15 00:49:36.093,2025-12-15 01:14:59.731,1523.64,25.39
1,Sat_1_7,Left,Sat_15_8,Sat_15_7,2025-12-15 01:20:17.213,2025-12-15 01:29:31.553,554.34,9.24
1,Sat_1_7,Left,Sat_15_7,Sat_15_8,2025-12-15 01:37:25.657,2025-12-15 02:02:49.184,1523.53,25.39
1,Sat_1_7,Left,Sat_15_8,Sat_15_7,2025-12-15 02:08:08.390,2025-12-15 02:17:19.379,550.99,9.18
1,Sat_1_7,Left,Sat_15_7,Sat_15_8,2025-12-15 02:25:15.238,2025-12-15 02:50:38.773,1523.54,25.39
1,Sat_1_7,Left,Sat_15_8,Sat_15_7,2025-12-15 02:55:59.264,2025-12-15 03:05:07.677,548.41,9.14
1,Sat_1_7,Left,Sat_15_7,Sat_15_8,2025-12-15 03:13:04.829,2025-12-15 03:38:28.471,1523.64,25.39
1,Sat_1_7,Left,Sat_15_8,Sat_15_7,2025-12-15 03:43:49.794,2025-12-15 03:52:56.385,546.59,9.11
1,Sat_1_7,Left,Sat_15_7,Sat_15_8,2025-12-15 04:00:54.426,2025-12-15 04:26:18.251,1523.82,25.40
1,Sat_1_7,Left,Sat_15_8,Sat_15_7,2025-12-15 04:31:39.933,2025-12-15 04:40:45.453,545.52,9.09
1,Sat_1_7,Left,Sat_15_7,Sat_15_8,2025-12-15 04:48:44.023,2025-12-15 05:14:08.088,1524.06,25.40
1,Sat_1_7,Left,Sat_15_8,Sat_15_7,2025-12-15 05:19:29.625,2025-12-15 05:28:34.836,545.21,9.09
1,Sat_1_7,Left,Sat_15_7,Sat_15_8,2025-12-15 05:36:33.614,2025-12-15 06:01:57.956,1524.34,25.41
1,Sat_1_7,Left,Sat_15_8,Sat_15_7,2025-12-15 06:07:18.808,2025-12-15 06:16:24.498,545.69,9.09
1,Sat_1_7,Left,Sat_15_7,Sat_15_8,2025-12-15 06:24:23.194,2025-12-15 06:49:47.830,1524.64,25.41
1,Sat_1_7,Left,Sat_15_8,Sat_15_7,2025-12-15 06:55:07.407,2025-12-15 07:04:14.405,547.00,9.12
1,Sat_1_7,Left,Sat_15_7,Sat_15_8,2025-12-15 07:12:12.757,2025-12-15 07:37:37.684,1524.93,25.42
1,Sat_1_7,Left,Sat_15_8,Sat_15_7,2025-12-15 07:42:55.335,2025-12-15 07:52:04.528,549.19,9.15
1,Sat_1_7,Left,Sat_15_7,Sat_15_8,2025-12-15 08:00:02.297,2025-12-15 08:25:27.495,1525.20,25.42
1,Sat_1_7,Left,Sat_15_8,Sat_15_7,2025-12-15 08:30:42.487,2025-12-15 08:39:54.843,552.36,9.21
1,Sat_1_7,Left,Sat_15_7,Sat_15_8,2025-12-15 08:47:51.578,2025-12-15 09:13:17.237,1525.66,25.43
1,Sat_1_7,Left,Sat_15_8,Sat_15_7,2025-12-15 09:18:28.736,2025-12-15 09:27:45.327,556.59,9.28
1,Sat_1_7,Left,Sat_15_7,Sat_15_8,2025-12-15 09:35:40.850,2025-12-15 10:01:06.884,1526.03,25.43
1,Sat_1_7,Left,Sat_15_8,Sat_15_7,2025-12-15 10:06:13.928,2025-12-15 10:15:35.961,562.03,9.37
1,Sat_1_7,Left,Sat_15_7,Sat_15_8,2025-12-15 10:23:30.182,2025-12-15 10:48:56.411,1526.23,25.44
1,Sat_1_7,Left,Sat_15_8,Sat_15_7,2025-12-15 11:41:51.241,2025-12-15 11:51:17.611,566.37,9.44
1,Sat_1_7,Left,Sat_15_8,Sat_15_7,2025-12-15 12:29:43.318,2025-12-15 12:39:08.597,565.28,9.42
1,Sat_1_7,Left,Sat_15_8,Sat_15_7,2025-12-15 13:17:35.221,2025-12-15 13:26:59.493,564.27,9.40
1,Sat_1_7,Left,Sat_15_8,Sat_15_7,2025-12-15 14:05:26.925,2025-12-15 14:14:46.057,559.13,9.32
1,Sat_1_7,Left,Sat_15_8,Sat_15_7,2025-12-15 14:53:18.401,2025-12-15 15:02:33.261,554.86,9.25
1,Sat_1_7,Left,Sat_15_7,Sat_15_8,2025-12-15 15:10:27.085,2025-12-15 15:35:50.620,1523.53,25.39
1,Sat_1_7,Left,Sat_15_8,Sat_15_7,2025-12-15 15:41:09.616,2025-12-15 15:50:21.018,551.40,9.19
1,Sat_1_7,Left,Sat_15_7,Sat_15_8,2025-12-15 15:58:16.664,2025-12-15 16:23:40.192,1523.53,25.39
1,Sat_1_7,Left,Sat_15_8,Sat_15_7,2025-12-15 16:29:00.533,2025-12-15 16:38:09.254,548.72,9.15
1,Sat_1_7,Left,Sat_15_7,Sat_15_8,2025-12-15 16:46:06.255,2025-12-15 17:11:29.877,1523.62,25.39
1,Sat_1_7,Left,Sat_15_8,Sat_15_7,2025-12-15 17:16:51.113,2025-12-15 17:25:57.909,546.80,9.11
1,Sat_1_7,Left,Sat_15_7,Sat_15_8,2025-12-15 17:33:55.851,2025-12-15 17:59:19.647,1523.80,25.40
1,Sat_1_7,Left,Sat_15_8,Sat_15_7,2025-12-15 18:04:41.309,2025-12-15 18:13:46.931,545.62,9.09
1,Sat_1_7,Left,Sat_15_7,Sat_15_8,2025-12-15 18:21:45.448,2025-12-15 18:47:09.478,1524.03,25.40
1,Sat_1_7,Left,Sat_15_8,Sat_15_7,2025-12-15 18:52:31.066,2025-12-15 19:01:36.274,545.21,9.09
1,Sat_1_7,Left,Sat_15_7,Sat_15_8,2025-12-15 19:09:35.040,2025-12-15 19:34:59.343,1524.30,25.41
1,Sat_1_7,Left,Sat_15_8,Sat_15_7,2025-12-15 19:40:20.323,2025-12-15 19:49:25.899,545.58,9.09
1,Sat_1_7,Left,Sat_15_7,Sat_15_8,2025-12-15 19:57:24.622,2025-12-15 20:22:49.217,1524.60,25.41
1,Sat_1_7,Left,Sat_15_8,Sat_15_7,2025-12-15 20:28:09.007,2025-12-15 20:37:15.774,546.77,9.11
1,Sat_1_7,Left,Sat_15_7,Sat_15_8,2025-12-15 20:45:14.188,2025-12-15 21:10:39.076,1524.89,25.41
1,Sat_1_7,Left,Sat_15_8,Sat_15_7,2025-12-15 21:15:57.032,2025-12-15 21:25:05.869,548.84,9.15
1,Sat_1_7,Left,Sat_15_7,Sat_15_8,2025-12-15 21:33:03.731,2025-12-15 21:58:28.895,1525.16,25.42
1,Sat_1_7,Left,Sat_15_8,Sat_15_7,2025-12-15 22:03:44.297,2025-12-15 22:12:56.159,551.86,9.20
1,Sat_1_7,Left,Sat_15_7,Sat_15_8,2025-12-15 22:20:53.053,2025-12-15 22:46:18.647,1525.59,25.43
1,Sat_1_7,Left,Sat_15_8,Sat_15_7,2025-12-15 22:51:30.678,2025-12-15 23:00:46.622,555.94,9.27
1,Sat_1_7,Left,Sat_15_7,Sat_15_8,2025-12-15 23:08:42.316,2025-12-15 23:34:08.309,1525.99,25.43
1,Sat_1_7,Left,Sat_15_8,Sat_15_7,2025-12-15 23:39:16.026,2025-12-15 23:48:37.236,561.21,9.35
1,Sat_1_7,Left,Sat_15_7,Sat_15_8,2025-12-15 23:56:31.640,2025-12-16 00:00:00.000,208.36,3.47
1,Sat_1_8,Left,Sat_15_9,Sat_15_8,2025-12-15 00:25:10.253,2025-12-15 00:34:16.851,546.60,9.11
1,Sat_1_8,Left,Sat_15_8,Sat_15_9,2025-12-15 00:42:15.310,2025-12-15 01:07:40.168,1524.86,25.41
1,Sat_1_8,Left,Sat_15_9,Sat_15_8,2025-12-15 01:12:58.354,2025-12-15 01:22:06.924,548.57,9.14
1,Sat_1_8,Left,Sat_15_8,Sat_15_9,2025-12-15 01:30:04.856,2025-12-15 01:55:29.991,1525.14,25.42
1,Sat_1_8,Left,Sat_15_9,Sat_15_8,2025-12-15 02:00:45.706,2025-12-15 02:09:57.194,551.49,9.19
1,Sat_1_8,Left,Sat_15_8,Sat_15_9,2025-12-15 02:17:54.210,2025-12-15 02:43:19.752,1525.54,25.43
1,Sat_1_8,Left,Sat_15_9,Sat_15_8,2025-12-15 02:48:32.189,2025-12-15 02:57:47.639,555.45,9.26
1,Sat_1_8,Left,Sat_15_8,Sat_15_9,2025-12-15 03:05:43.467,2025-12-15 03:31:09.425,1525.96,25.43
1,Sat_1_8,Left,Sat_15_9,Sat_15_8,2025-12-15 03:36:17.655,2025-12-15 03:45:38.238,560.58,9.34
1,Sat_1_8,Left,Sat_15_8,Sat_15_9,2025-12-15 03:53:32.785,2025-12-15 04:18:58.984,1526.20,25.44
1,Sat_1_8,Left,Sat_15_9,Sat_15_8,2025-12-15 04:24:01.925,2025-12-15 04:33:28.973,567.05,9.45
1,Sat_1_8,Left,Sat_15_9,Sat_15_8,2025-12-15 05:11:53.155,2025-12-15 05:21:19.829,566.67,9.44
1,Sat_1_8,Left,Sat_15_9,Sat_15_8,2025-12-15 05:59:45.270,2025-12-15 06:09:10.792,565.52,9.43
1,Sat_1_8,Left,Sat_15_9,Sat_15_8,2025-12-15 06:47:37.218,2025-12-15 06:57:01.847,564.63,9.41
1,Sat_1_8,Left,Sat_15_9,Sat_15_8,2025-12-15 07:35:28.973,2025-12-15 07:44:49.279,560.31,9.34
1,Sat_1_8,Left,Sat_15_9,Sat_15_8,2025-12-15 08:23:20.507,2025-12-15 08:32:36.335,555.83,9.26
1,Sat_1_8,Left,Sat_15_8,Sat_15_9,2025-12-15 08:40:29.635,2025-12-15 09:05:53.189,1523.55,25.39
1,Sat_1_8,Left,Sat_15_9,Sat_15_8,2025-12-15 09:11:11.789,2025-12-15 09:20:23.964,552.17,9.20
1,Sat_1_8,Left,Sat_15_8,Sat_15_9,2025-12-15 09:28:19.210,2025-12-15 09:53:42.730,1523.52,25.39
1,Sat_1_8,Left,Sat_15_9,Sat_15_8,2025-12-15 09:59:02.783,2025-12-15 10:08:12.089,549.31,9.16
1,Sat_1_8,Left,Sat_15_8,Sat_15_9,2025-12-15 10:16:08.799,2025-12-15 10:41:32.389,1523.59,25.39
1,Sat_1_8,Left,Sat_15_9,Sat_15_8,2025-12-15 10:46:53.450,2025-12-15 10:56:00.647,547.20,9.12
1,Sat_1_8,Left,Sat_15_8,Sat_15_9,2025-12-15 11:03:58.394,2025-12-15 11:29:22.141,1523.75,25.40
1,Sat_1_8,Left,Sat_15_9,Sat_15_8,2025-12-15 11:34:43.744,2025-12-15 11:43:49.583,545.84,9.10
1,Sat_1_8,Left,Sat_15_8,Sat_15_9,2025-12-15 11:51:47.992,2025-12-15 12:17:11.960,1523.97,25.40
1,Sat_1_8,Left,Sat_15_9,Sat_15_8,2025-12-15 12:22:33.613,2025-12-15 12:31:38.851,545.24,9.09
1,Sat_1_8,Left,Sat_15_8,Sat_15_9,2025-12-15 12:39:37.586,2025-12-15 13:05:01.819,1524.23,25.40
1,Sat_1_8,Left,Sat_15_9,Sat_15_8,2025-12-15 13:10:22.999,2025-12-15 13:19:28.411,545.41,9.09
1,Sat_1_8,Left,Sat_15_8,Sat_15_9,2025-12-15 13:27:27.170,2025-12-15 13:52:51.693,1524.52,25.41
1,Sat_1_8,Left,Sat_15_9,Sat_15_8,2025-12-15 13:58:11.830,2025-12-15 14:07:18.228,546.40,9.11
1,Sat_1_8,Left,Sat_15_8,Sat_15_9,2025-12-15 14:15:16.740,2025-12-15 14:40:41.558,1524.82,25.41
1,Sat_1_8,Left,Sat_15_9,Sat_15_8,2025-12-15 14:46:00.026,2025-12-15 14:55:08.272,548.25,9.14
1,Sat_1_8,Left,Sat_15_8,Sat_15_9,2025-12-15 15:03:06.290,2025-12-15 15:28:31.389,1525.10,25.42
1,Sat_1_8,Left,Sat_15_9,Sat_15_8,2025-12-15 15:33:47.487,2025-12-15 15:42:58.516,551.03,9.18
1,Sat_1_8,Left,Sat_15_8,Sat_15_9,2025-12-15 15:50:55.688,2025-12-15 16:16:21.160,1525.47,25.42
1,Sat_1_8,Left,Sat_15_9,Sat_15_8,2025-12-15 16:21:34.097,2025-12-15 16:30:48.938,554.84,9.25
1,Sat_1_8,Left,Sat_15_8,Sat_15_9,2025-12-15 16:38:44.935,2025-12-15 17:04:10.846,1525.91,25.43
1,Sat_1_8,Left,Sat_15_9,Sat_15_8,2025-12-15 17:09:19.713,2025-12-15 17:18:39.517,559.80,9.33
1,Sat_1_8,Left,Sat_15_8,Sat_15_9,2025-12-15 17:26:34.245,2025-12-15 17:52:00.422,1526.18,25.44
1,Sat_1_8,Left,Sat_15_9,Sat_15_8,2025-12-15 17:57:04.159,2025-12-15 18:06:30.235,566.08,9.43
1,Sat_1_8,Left,Sat_15_9,Sat_15_8,2025-12-15 18:44:54.224,2025-12-15 18:54:21.076,566.85,9.45
1,Sat_1_8,Left,Sat_15_9,Sat_15_8,2025-12-15 19:32:46.359,2025-12-15 19:42:12.024,565.66,9.43
1,Sat_1_8,Left,Sat_15_9,Sat_15_8,2025-12-15 20:20:38.331,2025-12-15 20:30:03.068,564.74,9.41
1,Sat_1_8,Left,Sat_15_9,Sat_15_8,2025-12-15 21:08:30.115,2025-12-15 21:17:51.101,560.99,9.35
1,Sat_1_8,Left,Sat_15_9,Sat_15_8,2025-12-15 21:56:21.681,2025-12-15 22:05:38.072,556.39,9.27
1,Sat_1_8,Left,Sat_15_8,Sat_15_9,2025-12-15 22:13:31.065,2025-12-15 22:38:54.633,1523.57,25.39
1,Sat_1_8,Left,Sat_15_9,Sat_15_8,2025-12-15 22:44:13.000,2025-12-15 22:53:25.628,552.63,9.21
1,Sat_1_8,Left,Sat_15_8,Sat_15_9,2025-12-15 23:01:20.638,2025-12-15 23:26:44.155,1523.52,25.39
1,Sat_1_8,Left,Sat_15_9,Sat_15_8,2025-12-15 23:32:04.035,2025-12-15 23:41:13.689,549.65,9.16
1,Sat_1_8,Left,Sat_15_8,Sat_15_9,2025-12-15 23:49:10.224,2025-12-16 00:00:00.000,649.78,10.83
1,Sat_1_9,Left,Sat_15_10,Sat_15_9,2025-12-15 00:17:39.203,2025-12-15 00:27:04.026,564.82,9.41
1,Sat_1_9,Left,Sat_15_10,Sat_15_9,2025-12-15 01:05:31.008,2025-12-15 01:14:52.540,561.53,9.36
1,Sat_1_9,Left,Sat_15_10,Sat_15_9,2025-12-15 01:53:22.599,2025-12-15 02:02:39.443,556.84,9.28
1,Sat_1_9,Left,Sat_15_9,Sat_15_10,2025-12-15 02:10:32.187,2025-12-15 02:35:55.768,1523.58,25.39
1,Sat_1_9,Left,Sat_15_10,Sat_15_9,2025-12-15 02:41:13.946,2025-12-15 02:50:26.939,552.99,9.22
1,Sat_1_9,Left,Sat_15_9,Sat_15_10,2025-12-15 02:58:21.758,2025-12-15 03:23:45.275,1523.52,25.39
1,Sat_1_9,Left,Sat_15_10,Sat_15_9,2025-12-15 03:29:05.014,2025-12-15 03:38:14.950,549.94,9.17
1,Sat_1_9,Left,Sat_15_9,Sat_15_10,2025-12-15 03:46:11.343,2025-12-15 04:11:34.908,1523.56,25.39
1,Sat_1_9,Left,Sat_15_10,Sat_15_9,2025-12-15 04:16:55.764,2025-12-15 04:26:03.407,547.64,9.13
1,Sat_1_9,Left,Sat_15_9,Sat_15_10,2025-12-15 04:34:00.937,2025-12-15 04:59:24.639,1523.70,25.40
1,Sat_1_9,Left,Sat_15_10,Sat_15_9,2025-12-15 05:04:46.154,2025-12-15 05:13:52.256,546.10,9.10
1,Sat_1_9,Left,Sat_15_9,Sat_15_10,2025-12-15 05:21:50.535,2025-12-15 05:47:14.444,1523.91,25.40
1,Sat_1_9,Left,Sat_15_10,Sat_15_9,2025-12-15 05:52:36.132,2025-12-15 06:01:41.447,545.31,9.09
1,Sat_1_9,Left,Sat_15_9,Sat_15_10,2025-12-15 06:09:40.130,2025-12-15 06:35:04.295,1524.17,25.40
1,Sat_1_9,Left,Sat_15_10,Sat_15_9,2025-12-15 06:40:25.642,2025-12-15 06:49:30.938,545.30,9.09
1,Sat_1_9,Left,Sat_15_9,Sat_15_10,2025-12-15 06:57:29.718,2025-12-15 07:22:54.168,1524.45,25.41
1,Sat_1_9,Left,Sat_15_10,Sat_15_9,2025-12-15 07:28:14.616,2025-12-15 07:37:20.695,546.08,9.10
1,Sat_1_9,Left,Sat_15_9,Sat_15_10,2025-12-15 07:45:19.292,2025-12-15 08:10:44.038,1524.75,25.41
1,Sat_1_9,Left,Sat_15_10,Sat_15_9,2025-12-15 08:16:02.975,2025-12-15 08:25:10.686,547.71,9.13
1,Sat_1_9,Left,Sat_15_9,Sat_15_10,2025-12-15 08:33:08.847,2025-12-15 08:58:33.879,1525.03,25.42
1,Sat_1_9,Left,Sat_15_10,Sat_15_9,2025-12-15 09:03:50.626,2025-12-15 09:13:00.884,550.26,9.17
1,Sat_1_9,Left,Sat_15_9,Sat_15_10,2025-12-15 09:20:58.327,2025-12-15 09:46:23.667,1525.34,25.42
1,Sat_1_9,Left,Sat_15_10,Sat_15_9,2025-12-15 09:51:37.456,2025-12-15 10:00:51.265,553.81,9.23
1,Sat_1_9,Left,Sat_15_9,Sat_15_10,2025-12-15 10:08:47.557,2025-12-15 10:34:13.377,1525.82,25.43
1,Sat_1_9,Left,Sat_15_10,Sat_15_9,2025-12-15 10:39:23.330,2025-12-15 10:48:41.807,558.48,9.31
1,Sat_1_9,Left,Sat_15_9,Sat_15_10,2025-12-15 10:56:36.853,2025-12-15 11:22:02.982,1526.13,25.44
1,Sat_1_9,Left,Sat_15_10,Sat_15_9,2025-12-15 11:27:08.080,2025-12-15 11:36:32.492,564.41,9.41
1,Sat_1_9,Left,Sat_15_10,Sat_15_9,2025-12-15 12:14:56.124,2025-12-15 12:24:23.304,567.18,9.45
1,Sat_1_9,Left,Sat_15_10,Sat_15_9,2025-12-15 13:02:48.296,2025-12-15 13:12:14.227,565.93,9.43
1,Sat_1_9,Left,Sat_15_10,Sat_15_9,2025-12-15 13:50:40.310,2025-12-15 14:00:05.249,564.94,9.42
1,Sat_1_9,Left,Sat_15_10,Sat_15_9,2025-12-15 14:38:32.142,2025-12-15 14:47:54.386,562.24,9.37
1,Sat_1_9,Left,Sat_15_10,Sat_15_9,2025-12-15 15:26:23.765,2025-12-15 15:35:41.200,557.44,9.29
1,Sat_1_9,Left,Sat_15_9,Sat_15_10,2025-12-15 15:43:33.617,2025-12-15 16:08:57.216,1523.60,25.39
1,Sat_1_9,Left,Sat_15_10,Sat_15_9,2025-12-15 16:14:15.147,2025-12-15 16:23:28.620,553.47,9.22
1,Sat_1_9,Left,Sat_15_9,Sat_15_10,2025-12-15 16:31:23.185,2025-12-15 16:56:46.704,1523.52,25.39
1,Sat_1_9,Left,Sat_15_10,Sat_15_9,2025-12-15 17:02:06.255,2025-12-15 17:11:16.565,550.31,9.17
1,Sat_1_9,Left,Sat_15_9,Sat_15_10,2025-12-15 17:19:12.769,2025-12-15 17:44:36.322,1523.55,25.39
1,Sat_1_9,Left,Sat_15_10,Sat_15_9,2025-12-15 17:49:57.052,2025-12-15 17:59:04.964,547.91,9.13
1,Sat_1_9,Left,Sat_15_9,Sat_15_10,2025-12-15 18:07:02.363,2025-12-15 18:32:26.041,1523.68,25.39
1,Sat_1_9,Left,Sat_15_10,Sat_15_9,2025-12-15 18:37:47.493,2025-12-15 18:46:53.762,546.27,9.10
1,Sat_1_9,Left,Sat_15_9,Sat_15_10,2025-12-15 18:54:51.960,2025-12-15 19:20:15.837,1523.88,25.40
1,Sat_1_9,Left,Sat_15_10,Sat_15_9,2025-12-15 19:25:37.531,2025-12-15 19:34:42.909,545.38,9.09
1,Sat_1_9,Left,Sat_15_9,Sat_15_10,2025-12-15 19:42:41.556,2025-12-15 20:08:05.684,1524.13,25.40
1,Sat_1_9,Left,Sat_15_10,Sat_15_9,2025-12-15 20:13:27.109,2025-12-15 20:22:32.362,545.25,9.09
1,Sat_1_9,Left,Sat_15_9,Sat_15_10,2025-12-15 20:30:31.145,2025-12-15 20:55:55.555,1524.41,25.41
1,Sat_1_9,Left,Sat_15_10,Sat_15_9,2025-12-15 21:01:16.161,2025-12-15 21:10:22.084,545.92,9.10
1,Sat_1_9,Left,Sat_15_9,Sat_15_10,2025-12-15 21:18:20.721,2025-12-15 21:43:45.427,1524.71,25.41
1,Sat_1_9,Left,Sat_15_10,Sat_15_9,2025-12-15 21:49:04.609,2025-12-15 21:58:12.045,547.44,9.12
1,Sat_1_9,Left,Sat_15_9,Sat_15_10,2025-12-15 22:06:10.279,2025-12-15 22:31:35.274,1524.99,25.42
1,Sat_1_9,Left,Sat_15_10,Sat_15_9,2025-12-15 22:36:52.364,2025-12-15 22:46:02.216,549.85,9.16
1,Sat_1_9,Left,Sat_15_9,Sat_15_10,2025-12-15 22:53:59.807,2025-12-15 23:19:25.070,1525.26,25.42
1,Sat_1_9,Left,Sat_15_10,Sat_15_9,2025-12-15 23:24:39.314,2025-12-15 23:33:52.572,553.26,9.22
1,Sat_1_9,Left,Sat_15_9,Sat_15_10,2025-12-15 23:41:49.029,2025-12-16 00:00:00.000,1090.97,18.18
1,Sat_1_10,Left,Sat_15_11,Sat_15_10,2025-12-15 00:10:28.253,2025-12-15 00:19:33.482,545.23,9.09
1,Sat_1_10,Left,Sat_15_10,Sat_15_11,2025-12-15 00:27:32.264,2025-12-15 00:52:56.643,1524.38,25.41
1,Sat_1_10,Left,Sat_15_11,Sat_15_10,2025-12-15 00:58:17.365,2025-12-15 01:07:23.177,545.81,9.10
1,Sat_1_10,Left,Sat_15_10,Sat_15_11,2025-12-15 01:15:21.842,2025-12-15 01:40:46.516,1524.67,25.41
1,Sat_1_10,Left,Sat_15_11,Sat_15_10,2025-12-15 01:46:05.882,2025-12-15 01:55:13.113,547.23,9.12
1,Sat_1_10,Left,Sat_15_10,Sat_15_11,2025-12-15 02:03:11.402,2025-12-15 02:28:36.367,1524.96,25.42
1,Sat_1_10,Left,Sat_15_11,Sat_15_10,2025-12-15 02:33:53.716,2025-12-15 02:43:03.263,549.55,9.16
1,Sat_1_10,Left,Sat_15_10,Sat_15_11,2025-12-15 02:51:00.939,2025-12-15 03:16:26.170,1525.23,25.42
1,Sat_1_10,Left,Sat_15_11,Sat_15_10,2025-12-15 03:21:40.758,2025-12-15 03:30:53.601,552.84,9.21
1,Sat_1_10,Left,Sat_15_10,Sat_15_11,2025-12-15 03:38:50.184,2025-12-15 04:04:15.901,1525.72,25.43
1,Sat_1_10,Left,Sat_15_11,Sat_15_10,2025-12-15 04:09:26.880,2025-12-15 04:18:44.105,557.23,9.29
1,Sat_1_10,Left,Sat_15_10,Sat_15_11,2025-12-15 04:26:39.464,2025-12-15 04:52:05.534,1526.07,25.43
1,Sat_1_10,Left,Sat_15_11,Sat_15_10,2025-12-15 04:57:11.922,2025-12-15 05:06:34.757,562.83,9.38
1,Sat_1_10,Left,Sat_15_10,Sat_15_11,2025-12-15 05:14:28.804,2025-12-15 05:39:55.044,1526.24,25.44
1,Sat_1_10,Left,Sat_15_11,Sat_15_10,2025-12-15 06:32:50.223,2025-12-15 06:42:16.437,566.21,9.44
1,Sat_1_10,Left,Sat_15_11,Sat_15_10,2025-12-15 07:20:42.278,2025-12-15 07:30:07.435,565.16,9.42
1,Sat_1_10,Left,Sat_15_11,Sat_15_10,2025-12-15 08:08:34.157,2025-12-15 08:17:57.712,563.55,9.39
1,Sat_1_10,Left,Sat_15_11,Sat_15_10,2025-12-15 08:56:25.834,2025-12-15 09:05:44.364,558.53,9.31
1,Sat_1_10,Left,Sat_15_10,Sat_15_11,2025-12-15 09:13:36.170,2025-12-15 09:38:59.809,1523.64,25.39
1,Sat_1_10,Left,Sat_15_11,Sat_15_10,2025-12-15 09:44:17.278,2025-12-15 09:53:31.644,554.37,9.24
1,Sat_1_10,Left,Sat_15_10,Sat_15_11,2025-12-15 10:01:25.734,2025-12-15 10:26:49.261,1523.53,25.39
1,Sat_1_10,Left,Sat_15_11,Sat_15_10,2025-12-15 10:32:08.456,2025-12-15 10:41:19.467,551.01,9.18
1,Sat_1_10,Left,Sat_15_10,Sat_15_11,2025-12-15 10:49:15.314,2025-12-15 11:14:38.849,1523.53,25.39
1,Sat_1_10,Left,Sat_15_11,Sat_15_10,2025-12-15 11:19:59.332,2025-12-15 11:29:07.761,548.43,9.14
1,Sat_1_10,Left,Sat_15_10,Sat_15_11,2025-12-15 11:37:04.906,2025-12-15 12:02:28.546,1523.64,25.39
1,Sat_1_10,Left,Sat_15_11,Sat_15_10,2025-12-15 12:07:49.865,2025-12-15 12:16:56.467,546.60,9.11
1,Sat_1_10,Left,Sat_15_10,Sat_15_11,2025-12-15 12:24:54.503,2025-12-15 12:50:18.326,1523.82,25.40
1,Sat_1_10,Left,Sat_15_11,Sat_15_10,2025-12-15 12:55:40.007,2025-12-15 13:04:45.532,545.53,9.09
1,Sat_1_10,Left,Sat_15_10,Sat_15_11,2025-12-15 13:12:44.100,2025-12-15 13:38:08.163,1524.06,25.40
1,Sat_1_10,Left,Sat_15_11,Sat_15_10,2025-12-15 13:43:29.703,2025-12-15 13:52:34.914,545.21,9.09
1,Sat_1_10,Left,Sat_15_10,Sat_15_11,2025-12-15 14:00:33.691,2025-12-15 14:25:58.030,1524.34,25.41
1,Sat_1_10,Left,Sat_15_11,Sat_15_10,2025-12-15 14:31:18.890,2025-12-15 14:40:24.574,545.68,9.09
1,Sat_1_10,Left,Sat_15_10,Sat_15_11,2025-12-15 14:48:23.271,2025-12-15 15:13:47.904,1524.63,25.41
1,Sat_1_10,Left,Sat_15_11,Sat_15_10,2025-12-15 15:19:07.494,2025-12-15 15:28:14.479,546.98,9.12
1,Sat_1_10,Left,Sat_15_10,Sat_15_11,2025-12-15 15:36:12.834,2025-12-15 16:01:37.759,1524.93,25.42
1,Sat_1_10,Left,Sat_15_11,Sat_15_10,2025-12-15 16:06:55.427,2025-12-15 16:16:04.600,549.17,9.15
1,Sat_1_10,Left,Sat_15_10,Sat_15_11,2025-12-15 16:24:02.374,2025-12-15 16:49:27.571,1525.20,25.42
1,Sat_1_10,Left,Sat_15_11,Sat_15_10,2025-12-15 16:54:42.585,2025-12-15 17:03:54.914,552.33,9.21
1,Sat_1_10,Left,Sat_15_10,Sat_15_11,2025-12-15 17:11:51.657,2025-12-15 17:37:17.313,1525.66,25.43
1,Sat_1_10,Left,Sat_15_11,Sat_15_10,2025-12-15 17:42:28.841,2025-12-15 17:51:45.397,556.56,9.28
1,Sat_1_10,Left,Sat_15_10,Sat_15_11,2025-12-15 17:59:40.929,2025-12-15 18:25:06.961,1526.03,25.43
1,Sat_1_10,Left,Sat_15_11,Sat_15_10,2025-12-15 18:30:14.042,2025-12-15 18:39:36.030,561.99,9.37
1,Sat_1_10,Left,Sat_15_10,Sat_15_11,2025-12-15 18:47:30.261,2025-12-15 19:12:56.489,1526.23,25.44
1,Sat_1_10,Left,Sat_15_11,Sat_15_10,2025-12-15 20:05:51.299,2025-12-15 20:15:17.678,566.38,9.44
1,Sat_1_10,Left,Sat_15_11,Sat_15_10,2025-12-15 20:53:43.377,2025-12-15 21:03:08.663,565.29,9.42
1,Sat_1_10,Left,Sat_15_11,Sat_15_10,2025-12-15 21:41:35.281,2025-12-15 21:50:59.595,564.31,9.41
1,Sat_1_10,Left,Sat_15_11,Sat_15_10,2025-12-15 22:29:26.987,2025-12-15 22:38:46.154,559.17,9.32
1,Sat_1_10,Left,Sat_15_11,Sat_15_10,2025-12-15 23:17:18.465,2025-12-15 23:26:33.353,554.89,9.25
1,Sat_1_10,Left,Sat_15_10,Sat_15_11,2025-12-15 23:34:27.162,2025-12-15 23:59:50.697,1523.54,25.39
1,Sat_1_11,Left,Sat_15_12,Sat_15_11,2025-12-15 00:50:44.236,2025-12-15 01:00:09.627,565.39,9.42
1,Sat_1_11,Left,Sat_15_12,Sat_15_11,2025-12-15 01:38:36.160,2025-12-15 01:48:00.694,564.53,9.41
1,Sat_1_11,Left,Sat_15_12,Sat_15_11,2025-12-15 02:26:27.889,2025-12-15 02:35:47.566,559.68,9.33
1,Sat_1_11,Left,Sat_15_12,Sat_15_11,2025-12-15 03:14:19.392,2025-12-15 03:23:34.701,555.31,9.26
1,Sat_1_11,Left,Sat_15_11,Sat_15_12,2025-12-15 03:31:28.283,2025-12-15 03:56:51.826,1523.54,25.39
1,Sat_1_11,Left,Sat_15_12,Sat_15_11,2025-12-15 04:02:10.639,2025-12-15 04:11:22.398,551.76,9.20
1,Sat_1_11,Left,Sat_15_11,Sat_15_12,2025-12-15 04:19:17.860,2025-12-15 04:44:41.383,1523.52,25.39
1,Sat_1_11,Left,Sat_15_12,Sat_15_11,2025-12-15 04:50:01.593,2025-12-15 04:59:10.583,548.99,9.15
1,Sat_1_11,Left,Sat_15_11,Sat_15_12,2025-12-15 05:07:07.450,2025-12-15 05:32:31.056,1523.61,25.39
1,Sat_1_11,Left,Sat_15_12,Sat_15_11,2025-12-15 05:37:52.214,2025-12-15 05:46:59.193,546.98,9.12
1,Sat_1_11,Left,Sat_15_11,Sat_15_12,2025-12-15 05:54:57.046,2025-12-15 06:20:20.818,1523.77,25.40
1,Sat_1_11,Left,Sat_15_12,Sat_15_11,2025-12-15 06:25:42.456,2025-12-15 06:34:48.175,545.72,9.10
1,Sat_1_11,Left,Sat_15_11,Sat_15_12,2025-12-15 06:42:46.643,2025-12-15 07:08:10.643,1524.00,25.40
1,Sat_1_11,Left,Sat_15_12,Sat_15_11,2025-12-15 07:13:32.266,2025-12-15 07:22:37.483,545.22,9.09
1,Sat_1_11,Left,Sat_15_11,Sat_15_12,2025-12-15 07:30:36.236,2025-12-15 07:56:00.506,1524.27,25.40
1,Sat_1_11,Left,Sat_15_12,Sat_15_11,2025-12-15 08:01:21.584,2025-12-15 08:10:27.077,545.49,9.09
1,Sat_1_11,Left,Sat_15_11,Sat_15_12,2025-12-15 08:18:25.819,2025-12-15 08:43:50.381,1524.56,25.41
1,Sat_1_11,Left,Sat_15_12,Sat_15_11,2025-12-15 08:49:10.338,2025-12-15 08:58:16.925,546.59,9.11
1,Sat_1_11,Left,Sat_15_11,Sat_15_12,2025-12-15 09:06:15.387,2025-12-15 09:31:40.243,1524.86,25.41
1,Sat_1_11,Left,Sat_15_12,Sat_15_11,2025-12-15 09:36:58.444,2025-12-15 09:46:06.997,548.55,9.14
1,Sat_1_11,Left,Sat_15_11,Sat_15_12,2025-12-15 09:54:04.934,2025-12-15 10:19:30.067,1525.13,25.42
1,Sat_1_11,Left,Sat_15_12,Sat_15_11,2025-12-15 10:24:45.802,2025-12-15 10:33:57.265,551.46,9.19
1,Sat_1_11,Left,Sat_15_11,Sat_15_12,2025-12-15 10:41:54.290,2025-12-15 11:07:19.828,1525.54,25.43
1,Sat_1_11,Left,Sat_15_12,Sat_15_11,2025-12-15 11:12:32.292,2025-12-15 11:21:47.709,555.42,9.26
1,Sat_1_11,Left,Sat_15_11,Sat_15_12,2025-12-15 11:29:43.546,2025-12-15 11:55:09.502,1525.96,25.43
1,Sat_1_11,Left,Sat_15_12,Sat_15_11,2025-12-15 12:00:17.767,2025-12-15 12:09:38.307,560.54,9.34
1,Sat_1_11,Left,Sat_15_11,Sat_15_12,2025-12-15 12:17:32.863,2025-12-15 12:42:59.062,1526.20,25.44
1,Sat_1_11,Left,Sat_15_12,Sat_15_11,2025-12-15 12:48:02.046,2025-12-15 12:57:29.041,566.99,9.45
1,Sat_1_11,Left,Sat_15_12,Sat_15_11,2025-12-15 13:35:53.213,2025-12-15 13:45:19.896,566.68,9.44
1,Sat_1_11,Left,Sat_15_12,Sat_15_11,2025-12-15 14:23:45.328,2025-12-15 14:33:10.858,565.53,9.43
1,Sat_1_11,Left,Sat_15_12,Sat_15_11,2025-12-15 15:11:37.278,2025-12-15 15:21:01.913,564.64,9.41
1,Sat_1_11,Left,Sat_15_12,Sat_15_11,2025-12-15 15:59:29.035,2025-12-15 16:08:49.377,560.34,9.34
1,Sat_1_11,Left,Sat_15_12,Sat_15_11,2025-12-15 16:47:20.571,2025-12-15 16:56:36.428,555.86,9.26
1,Sat_1_11,Left,Sat_15_11,Sat_15_12,2025-12-15 17:04:29.712,2025-12-15 17:29:53.267,1523.55,25.39
1,Sat_1_11,Left,Sat_15_12,Sat_15_11,2025-12-15 17:35:11.855,2025-12-15 17:44:24.053,552.20,9.20
1,Sat_1_11,Left,Sat_15_11,Sat_15_12,2025-12-15 17:52:19.287,2025-12-15 18:17:42.807,1523.52,25.39
1,Sat_1_11,Left,Sat_15_12,Sat_15_11,2025-12-15 18:23:02.851,2025-12-15 18:32:12.175,549.32,9.16
1,Sat_1_11,Left,Sat_15_11,Sat_15_12,2025-12-15 18:40:08.875,2025-12-15 19:05:32.465,1523.59,25.39
1,Sat_1_11,Left,Sat_15_12,Sat_15_11,2025-12-15 19:10:53.520,2025-12-15 19:20:00.730,547.21,9.12
1,Sat_1_11,Left,Sat_15_11,Sat_15_12,2025-12-15 19:27:58.471,2025-12-15 19:53:22.217,1523.75,25.40
1,Sat_1_11,Left,Sat_15_12,Sat_15_11,2025-12-15 19:58:43.817,2025-12-15 20:07:49.664,545.85,9.10
1,Sat_1_11,Left,Sat_15_11,Sat_15_12,2025-12-15 20:15:48.069,2025-12-15 20:41:12.035,1523.97,25.40
1,Sat_1_11,Left,Sat_15_12,Sat_15_11,2025-12-15 20:46:33.690,2025-12-15 20:55:38.930,545.24,9.09
1,Sat_1_11,Left,Sat_15_11,Sat_15_12,2025-12-15 21:03:37.662,2025-12-15 21:29:01.893,1524.23,25.40
1,Sat_1_11,Left,Sat_15_12,Sat_15_11,2025-12-15 21:34:23.079,2025-12-15 21:43:28.487,545.41,9.09
1,Sat_1_11,Left,Sat_15_11,Sat_15_12,2025-12-15 21:51:27.247,2025-12-15 22:16:51.768,1524.52,25.41
1,Sat_1_11,Left,Sat_15_12,Sat_15_11,2025-12-15 22:22:11.915,2025-12-15 22:31:18.302,546.39,9.11
1,Sat_1_11,Left,Sat_15_11,Sat_15_12,2025-12-15 22:39:16.817,2025-12-15 23:04:41.633,1524.82,25.41
1,Sat_1_11,Left,Sat_15_12,Sat_15_11,2025-12-15 23:10:00.115,2025-12-15 23:19:08.345,548.23,9.14
1,Sat_1_11,Left,Sat_15_11,Sat_15_12,2025-12-15 23:27:06.367,2025-12-15 23:52:31.464,1525.10,25.42
1,Sat_1_11,Left,Sat_15_12,Sat_15_11,2025-12-15 23:57:47.583,2025-12-16 00:00:00.000,132.42,2.21
1,Sat_1_12,Left,Sat_15_12,Sat_15_13,2025-12-15 00:12:49.187,2025-12-15 00:38:13.126,1523.94,25.40
1,Sat_1_12,Left,Sat_15_13,Sat_15_12,2025-12-15 00:43:34.800,2025-12-15 00:52:40.068,545.27,9.09
1,Sat_1_12,Left,Sat_15_12,Sat_15_13,2025-12-15 01:00:38.781,2025-12-15 01:26:02.982,1524.20,25.40
1,Sat_1_12,Left,Sat_15_13,Sat_15_12,2025-12-15 01:31:24.245,2025-12-15 01:40:29.597,545.35,9.09
1,Sat_1_12,Left,Sat_15_12,Sat_15_13,2025-12-15 01:48:28.367,2025-12-15 02:13:52.856,1524.49,25.41
1,Sat_1_12,Left,Sat_15_13,Sat_15_12,2025-12-15 02:19:13.144,2025-12-15 02:28:19.386,546.24,9.10
1,Sat_1_12,Left,Sat_15_12,Sat_15_13,2025-12-15 02:36:17.939,2025-12-15 03:01:42.723,1524.78,25.41
1,Sat_1_12,Left,Sat_15_13,Sat_15_12,2025-12-15 03:07:01.417,2025-12-15 03:16:09.405,547.99,9.13
1,Sat_1_12,Left,Sat_15_12,Sat_15_13,2025-12-15 03:24:07.491,2025-12-15 03:49:32.559,1525.07,25.42
1,Sat_1_12,Left,Sat_15_13,Sat_15_12,2025-12-15 03:54:48.968,2025-12-15 04:03:59.627,550.66,9.18
1,Sat_1_12,Left,Sat_15_12,Sat_15_13,2025-12-15 04:11:56.927,2025-12-15 04:37:22.338,1525.41,25.42
1,Sat_1_12,Left,Sat_15_13,Sat_15_12,2025-12-15 04:42:35.682,2025-12-15 04:51:50.030,554.35,9.24
1,Sat_1_12,Left,Sat_15_12,Sat_15_13,2025-12-15 04:59:46.166,2025-12-15 05:25:12.036,1525.87,25.43
1,Sat_1_12,Left,Sat_15_13,Sat_15_12,2025-12-15 05:30:21.420,2025-12-15 05:39:40.592,559.17,9.32
1,Sat_1_12,Left,Sat_15_12,Sat_15_13,2025-12-15 05:47:35.469,2025-12-15 06:13:01.626,1526.16,25.44
1,Sat_1_12,Left,Sat_15_13,Sat_15_12,2025-12-15 06:18:06.011,2025-12-15 06:27:31.295,565.28,9.42
1,Sat_1_12,Left,Sat_15_13,Sat_15_12,2025-12-15 07:05:55.118,2025-12-15 07:15:22.122,567.00,9.45
1,Sat_1_12,Left,Sat_15_13,Sat_15_12,2025-12-15 07:53:47.270,2025-12-15 08:03:13.058,565.79,9.43
1,Sat_1_12,Left,Sat_15_13,Sat_15_12,2025-12-15 08:41:39.263,2025-12-15 08:51:04.092,564.83,9.41
1,Sat_1_12,Left,Sat_15_13,Sat_15_12,2025-12-15 09:29:31.069,2025-12-15 09:38:52.639,561.57,9.36
1,Sat_1_12,Left,Sat_15_13,Sat_15_12,2025-12-15 10:17:22.662,2025-12-15 10:26:39.538,556.88,9.28
1,Sat_1_12,Left,Sat_15_12,Sat_15_13,2025-12-15 10:34:32.264,2025-12-15 10:59:55.846,1523.58,25.39
1,Sat_1_12,Left,Sat_15_13,Sat_15_12,2025-12-15 11:05:14.011,2025-12-15 11:14:27.030,553.02,9.22
1,Sat_1_12,Left,Sat_15_12,Sat_15_13,2025-12-15 11:22:21.834,2025-12-15 11:47:45.352,1523.52,25.39
1,Sat_1_12,Left,Sat_15_13,Sat_15_12,2025-12-15 11:53:05.081,2025-12-15 12:02:15.037,549.96,9.17
1,Sat_1_12,Left,Sat_15_12,Sat_15_13,2025-12-15 12:10:11.420,2025-12-15 12:35:34.984,1523.56,25.39
1,Sat_1_12,Left,Sat_15_13,Sat_15_12,2025-12-15 12:40:55.834,2025-12-15 12:50:03.491,547.66,9.13
1,Sat_1_12,Left,Sat_15_12,Sat_15_13,2025-12-15 12:58:01.014,2025-12-15 13:23:24.715,1523.70,25.40
1,Sat_1_12,Left,Sat_15_13,Sat_15_12,2025-12-15 13:28:46.226,2025-12-15 13:37:52.337,546.11,9.10
1,Sat_1_12,Left,Sat_15_12,Sat_15_13,2025-12-15 13:45:50.612,2025-12-15 14:11:14.519,1523.91,25.40
1,Sat_1_12,Left,Sat_15_13,Sat_15_12,2025-12-15 14:16:36.208,2025-12-15 14:25:41.525,545.32,9.09
1,Sat_1_12,Left,Sat_15_12,Sat_15_13,2025-12-15 14:33:40.207,2025-12-15 14:59:04.370,1524.16,25.40
1,Sat_1_12,Left,Sat_15_13,Sat_15_12,2025-12-15 15:04:25.721,2025-12-15 15:13:31.015,545.29,9.09
1,Sat_1_12,Left,Sat_15_12,Sat_15_13,2025-12-15 15:21:29.794,2025-12-15 15:46:54.243,1524.45,25.41
1,Sat_1_12,Left,Sat_15_13,Sat_15_12,2025-12-15 15:52:14.699,2025-12-15 16:01:20.770,546.07,9.10
1,Sat_1_12,Left,Sat_15_12,Sat_15_13,2025-12-15 16:09:19.369,2025-12-15 16:34:44.113,1524.74,25.41
1,Sat_1_12,Left,Sat_15_13,Sat_15_12,2025-12-15 16:40:03.064,2025-12-15 16:49:10.759,547.70,9.13
1,Sat_1_12,Left,Sat_15_12,Sat_15_13,2025-12-15 16:57:08.924,2025-12-15 17:22:33.954,1525.03,25.42
1,Sat_1_12,Left,Sat_15_13,Sat_15_12,2025-12-15 17:27:50.720,2025-12-15 17:37:00.956,550.24,9.17
1,Sat_1_12,Left,Sat_15_12,Sat_15_13,2025-12-15 17:44:58.406,2025-12-15 18:10:23.743,1525.34,25.42
1,Sat_1_12,Left,Sat_15_13,Sat_15_12,2025-12-15 18:15:37.557,2025-12-15 18:24:51.335,553.78,9.23
1,Sat_1_12,Left,Sat_15_12,Sat_15_13,2025-12-15 18:32:47.636,2025-12-15 18:58:13.453,1525.82,25.43
1,Sat_1_12,Left,Sat_15_13,Sat_15_12,2025-12-15 19:03:23.438,2025-12-15 19:12:41.876,558.44,9.31
1,Sat_1_12,Left,Sat_15_12,Sat_15_13,2025-12-15 19:20:36.931,2025-12-15 19:46:03.059,1526.13,25.44
1,Sat_1_12,Left,Sat_15_13,Sat_15_12,2025-12-15 19:51:08.197,2025-12-15 20:00:32.561,564.36,9.41
1,Sat_1_12,Left,Sat_15_13,Sat_15_12,2025-12-15 20:38:56.182,2025-12-15 20:48:23.372,567.19,9.45
1,Sat_1_12,Left,Sat_15_13,Sat_15_12,2025-12-15 21:26:48.354,2025-12-15 21:36:14.294,565.94,9.43
1,Sat_1_12,Left,Sat_15_13,Sat_15_12,2025-12-15 22:14:40.370,2025-12-15 22:24:05.315,564.94,9.42
1,Sat_1_12,Left,Sat_15_13,Sat_15_12,2025-12-15 23:02:32.203,2025-12-15 23:11:54.485,562.28,9.37
1,Sat_1_12,Left,Sat_15_13,Sat_15_12,2025-12-15 23:50:23.827,2025-12-15 23:59:41.295,557.47,9.29
1,Sat_1_13,Left,Sat_15_1,Sat_15_13,2025-12-15 00:35:57.014,2025-12-15 00:45:24.354,567.34,9.46
1,Sat_1_13,Left,Sat_15_1,Sat_15_13,2025-12-15 01:23:49.203,2025-12-15 01:33:15.265,566.06,9.43
1,Sat_1_13,Left,Sat_15_1,Sat_15_13,2025-12-15 02:11:41.236,2025-12-15 02:21:06.276,565.04,9.42
1,Sat_1_13,Left,Sat_15_1,Sat_15_13,2025-12-15 02:59:33.091,2025-12-15 03:08:55.943,562.85,9.38
1,Sat_1_13,Left,Sat_15_1,Sat_15_13,2025-12-15 03:47:24.738,2025-12-15 03:56:42.682,557.94,9.30
1,Sat_1_13,Left,Sat_15_13,Sat_15_1,2025-12-15 04:04:34.816,2025-12-15 04:29:58.433,1523.62,25.39
1,Sat_1_13,Left,Sat_15_1,Sat_15_13,2025-12-15 04:35:16.150,2025-12-15 04:44:30.037,553.89,9.23
1,Sat_1_13,Left,Sat_15_13,Sat_15_1,2025-12-15 04:52:24.382,2025-12-15 05:17:47.905,1523.52,25.39
1,Sat_1_13,Left,Sat_15_1,Sat_15_13,2025-12-15 05:23:07.291,2025-12-15 05:32:17.925,550.63,9.18
1,Sat_1_13,Left,Sat_15_13,Sat_15_1,2025-12-15 05:40:13.965,2025-12-15 06:05:37.508,1523.54,25.39
1,Sat_1_13,Left,Sat_15_1,Sat_15_13,2025-12-15 06:10:58.126,2025-12-15 06:20:06.275,548.15,9.14
1,Sat_1_13,Left,Sat_15_13,Sat_15_1,2025-12-15 06:28:03.557,2025-12-15 06:53:27.218,1523.66,25.39
1,Sat_1_13,Left,Sat_15_1,Sat_15_13,2025-12-15 06:58:48.611,2025-12-15 07:07:55.030,546.42,9.11
1,Sat_1_13,Left,Sat_15_13,Sat_15_1,2025-12-15 07:15:53.155,2025-12-15 07:41:17.006,1523.85,25.40
1,Sat_1_13,Left,Sat_15_1,Sat_15_13,2025-12-15 07:46:38.698,2025-12-15 07:55:44.139,545.44,9.09
1,Sat_1_13,Left,Sat_15_13,Sat_15_1,2025-12-15 08:03:42.751,2025-12-15 08:29:06.848,1524.10,25.40
1,Sat_1_13,Left,Sat_15_1,Sat_15_13,2025-12-15 08:34:28.332,2025-12-15 08:43:33.559,545.23,9.09
1,Sat_1_13,Left,Sat_15_13,Sat_15_1,2025-12-15 08:51:32.341,2025-12-15 09:16:56.718,1524.38,25.41
